timestamp(unix),attitude_roll(radians),attitude_pitch(radians),attitude_yaw(radians),rotation_rate_x(radians/s),rotation_rate_y(radians/s),rotation_rate_z(radians/s),gravity_x(G),gravity_y(G),gravity_z(G),user_acc_x(G),user_acc_y(G),user_acc_z(G),magnetic_field_x(microteslas),magnetic_field_y(microteslas),magnetic_field_z(microteslas),latitude(degree),longitude(degree),altitude(meter),speed(m/s),course(degree),timestamp(unix)
1483614215.041103,0.234791,0.170883,-0.240728,0.027963,-0.408959,-0.190521,0.229251,-0.170053,-0.958398,-0.026477,0.057489,0.039132,-32.986294,-2.191498,-111.097595,,,,,,
,,,,,,,,,,,,,,,,33.759188,-118.389169,321.444244,-1.000000,-1.000000,1483614215.012139
,,,,,,,,,,,,,,,,33.759188,-118.389169,321.444244,-1.000000,-1.000000,1483614211.639671
,,,,,,,,,,,,,,,,33.759188,-118.389169,321.444244,-1.000000,-1.000000,1483614215.014206
,,,,,,,,,,,,,,,,33.759188,-118.389169,321.444244,-1.000000,-1.000000,1483614215.014793
1483614215.061122,0.226396,0.167777,-0.244609,-0.108445,-0.570437,-0.198371,0.221315,-0.166991,-0.960798,0.033018,0.035903,-0.039095,-33.211178,-2.190811,-110.872986,,,,,,
1483614215.081111,0.212538,0.161969,-0.247366,-0.343594,-0.793296,-0.205685,0.208181,-0.161261,-0.964705,0.035899,0.008811,-0.049669,-33.211178,-2.190811,-110.872986,,,,,,
,,,,,,,,,,,,,,,,33.759187,-118.389167,321.463135,-1.000000,-1.000000,1483614215.024468
,,,,,,,,,,,,,,,,33.759187,-118.389168,321.465790,-1.000000,-1.000000,1483614215.024468
1483614215.101131,0.195092,0.151450,-0.251073,-0.501808,-0.988829,-0.326201,0.191638,-0.150872,-0.969800,0.025312,0.027322,0.002637,-33.435009,-1.965363,-110.799438,,,,,,
1483614215.121120,0.173792,0.139320,-0.255722,-0.586847,-1.175352,-0.325035,0.171243,-0.138870,-0.975393,0.046439,-0.031678,0.027791,-34.781322,-1.287460,-110.204895,,,,,,
1483614215.141139,0.150750,0.127493,-0.259386,-0.640592,-1.299037,-0.237156,0.148960,-0.127148,-0.980635,0.061245,-0.043552,0.018171,-35.227261,-0.535904,-109.609253,,,,,,
1483614215.161128,0.128119,0.114518,-0.260782,-0.614129,-1.023960,-0.128740,0.126932,-0.114268,-0.985308,0.070761,-0.033895,0.066256,-35.677593,-0.610123,-109.534546,,,,,,
1483614215.181148,0.110950,0.103480,-0.261459,-0.494359,-0.786207,-0.098489,0.110130,-0.103295,-0.988535,0.051415,-0.003867,0.049311,-35.677593,-0.610123,-109.534546,,,,,,
1483614215.201137,0.098408,0.095636,-0.262294,-0.325535,-0.544837,-0.072412,0.097801,-0.095490,-0.990614,0.064797,-0.016647,0.061323,-36.345913,0.666794,-108.941956,,,,,,
1483614215.221157,0.090877,0.090235,-0.263327,-0.289107,-0.419236,-0.075045,0.090383,-0.090113,-0.991822,0.068049,-0.013952,0.055909,-36.569790,0.892120,-108.943420,,,,,,
1483614215.241146,0.082195,0.083707,-0.264625,-0.342115,-0.456839,-0.091763,0.081815,-0.083609,-0.993134,0.059466,-0.013818,0.037659,-36.421810,0.442566,-108.490906,,,,,,
1483614215.261135,0.074668,0.076796,-0.265216,-0.407407,-0.452156,-0.025885,0.074379,-0.076721,-0.994274,0.054924,-0.027100,0.059079,-37.693584,1.045166,-108.045837,,,,,,
1483614215.281154,0.067248,0.068665,-0.263194,-0.360290,-0.258708,0.151935,0.067039,-0.068611,-0.995389,0.056954,-0.020195,0.056057,-37.693584,1.045166,-108.045837,,,,,,
1483614215.301143,0.066438,0.065713,-0.258547,-0.056126,0.122859,0.234134,0.066246,-0.065666,-0.995640,0.025246,0.011207,0.080632,-37.841442,1.495026,-108.273315,,,,,,
1483614215.321163,0.071180,0.066527,-0.254470,0.045429,0.259681,0.182479,0.070962,-0.066477,-0.995261,0.045660,0.022334,-0.005334,-37.766262,1.495468,-107.898254,,,,,,
1483614215.341152,0.075373,0.066783,-0.251234,-0.029957,0.220825,0.161447,0.075134,-0.066733,-0.994938,-0.002182,0.036307,0.008488,-38.513699,1.947495,-107.301575,,,,,,
1483614215.361171,0.073322,0.063521,-0.248944,-0.343613,-0.448471,0.033977,0.073109,-0.063478,-0.995302,0.035030,0.106309,-0.224364,-37.765057,1.720688,-107.749329,,,,,,
1483614215.381160,0.062167,0.053827,-0.247557,-0.337003,-0.478142,0.030123,0.062037,-0.053801,-0.996623,-0.034617,0.067534,-0.013830,-37.765057,1.720688,-107.749329,,,,,,
1483614215.401180,0.053769,0.050099,-0.247760,-0.128367,-0.391325,-0.037628,0.053675,-0.050078,-0.997302,-0.049845,0.065245,-0.007032,-37.689724,1.795486,-107.824585,,,,,,
1483614215.421169,0.044365,0.043604,-0.249502,-0.147626,-0.339376,-0.156766,0.044308,-0.043590,-0.998066,-0.045605,0.076809,0.007512,-38.211376,2.397263,-107.153442,,,,,,
1483614215.441188,0.040688,0.041208,-0.254486,-0.064718,-0.095410,-0.298424,0.040642,-0.041196,-0.998324,-0.005211,0.074308,0.051516,-39.112637,2.099289,-106.703308,,,,,,
1483614215.461177,0.039494,0.041456,-0.259936,0.012571,0.111151,-0.252944,0.039450,-0.041444,-0.998362,-0.046271,-0.011580,0.047129,-38.510998,2.472702,-107.154297,,,,,,
1483614215.481197,0.042017,0.041528,-0.264557,0.002138,0.085598,-0.234501,0.041968,-0.041516,-0.998256,-0.031256,-0.012027,0.007991,-38.510998,2.472702,-107.154297,,,,,,
1483614215.501186,0.042815,0.040891,-0.269563,0.011960,0.067662,-0.266232,0.042766,-0.040879,-0.998248,-0.015957,0.010682,0.002963,-38.213070,2.096710,-107.526917,,,,,,
1483614215.521205,0.045698,0.042146,-0.274478,0.132471,0.193930,-0.211034,0.045641,-0.042134,-0.998069,-0.025622,-0.000453,0.009254,-37.763180,2.095688,-107.751221,,,,,,
1483614215.541194,0.051402,0.046654,-0.278568,0.361684,0.349847,-0.197516,0.051323,-0.046637,-0.997593,-0.015801,0.020697,-0.010632,-38.138699,1.946930,-107.301025,,,,,,
1483614215.561214,0.058094,0.054821,-0.283522,0.425220,0.286753,-0.244493,0.057975,-0.054794,-0.996813,0.005761,0.018829,-0.039854,-37.467388,1.270020,-107.896667,,,,,,
1483614215.581203,0.061942,0.061975,-0.288584,0.256893,0.100533,-0.212637,0.061784,-0.061935,-0.996166,-0.000215,-0.025116,-0.034397,-37.467388,1.270020,-107.896667,,,,,,
1483614215.601222,0.061832,0.064452,-0.291885,0.080777,-0.063510,-0.129903,0.061664,-0.064408,-0.996017,0.005536,-0.033706,-0.015763,-37.543728,1.044479,-108.345642,,,,,,
1483614215.621211,0.060436,0.065920,-0.294474,0.059391,-0.056269,-0.128993,0.060268,-0.065873,-0.996006,-0.004497,-0.007873,0.036869,-37.394070,0.969360,-108.270020,,,,,,
1483614215.641200,0.061339,0.067107,-0.297603,0.061577,0.099846,-0.171590,0.061162,-0.067056,-0.995873,-0.011449,0.012430,0.084130,-37.694439,0.894806,-108.270142,,,,,,
1483614215.661220,0.066928,0.066064,-0.302458,0.046856,0.263327,-0.288997,0.066732,-0.066016,-0.995585,0.019083,0.041679,0.084681,-36.870388,0.743027,-108.643127,,,,,,
1483614215.681209,0.074453,0.067892,-0.311103,0.196853,0.404973,-0.499500,0.074213,-0.067840,-0.994932,0.059714,0.109389,0.072600,-36.870388,0.743027,-108.643127,,,,,,
1483614215.701229,0.084989,0.073433,-0.321726,0.351801,0.499718,-0.468316,0.084658,-0.073367,-0.993705,0.038373,0.021472,0.070427,-36.347042,0.441788,-108.940857,,,,,,
1483614215.721217,0.093638,0.076860,-0.328836,0.092968,0.365620,-0.264625,0.093225,-0.076784,-0.992680,0.030860,-0.047667,0.069538,-36.498547,0.141998,-108.939575,,,,,,
1483614215.741236,0.102564,0.076764,-0.331808,-0.158592,0.414205,-0.080402,0.102083,-0.076689,-0.991815,0.021437,-0.041277,0.044809,-35.900570,-0.234329,-109.236755,,,,,,
1483614215.761225,0.109371,0.073735,-0.331377,-0.144932,0.252859,0.026305,0.108856,-0.073668,-0.991324,0.047287,0.018782,-0.102380,-35.449490,-0.010117,-109.312256,,,,,,
1483614215.781245,0.110901,0.070438,-0.330966,-0.175885,-0.017010,-0.020331,0.110400,-0.070379,-0.991392,0.015989,0.025183,-0.132143,-35.449490,-0.010117,-109.312256,,,,,,
1483614215.801234,0.108315,0.067139,-0.331760,-0.146761,-0.184433,-0.075621,0.107860,-0.067088,-0.991900,-0.013088,0.018657,-0.111799,-35.374523,-0.010330,-109.387146,,,,,,
1483614215.821253,0.103018,0.064005,-0.332963,-0.122278,-0.177860,-0.076704,0.102626,-0.063961,-0.992662,-0.042811,-0.022602,-0.050902,-35.449154,0.064774,-109.387634,,,,,,
1483614215.841242,0.100636,0.061402,-0.333369,-0.133811,-0.089921,-0.002176,0.100277,-0.061364,-0.993065,-0.049465,-0.056770,-0.021766,-35.448635,0.214081,-109.838379,,,,,,
1483614215.861262,0.097231,0.061356,-0.332026,-0.131055,-0.056015,0.068848,0.096895,-0.061317,-0.993404,-0.039888,-0.048668,-0.024540,-35.222805,0.363968,-109.688782,,,,,,
1483614215.881251,0.096678,0.059285,-0.330692,-0.088697,-0.003602,0.043742,0.096358,-0.059251,-0.993582,-0.036574,-0.021148,-0.015787,-35.222805,0.363968,-109.688782,,,,,,
1483614215.901270,0.095286,0.059189,-0.329530,-0.051587,0.020045,0.062735,0.094975,-0.059154,-0.993721,-0.035359,-0.044041,-0.021981,-35.597195,0.440216,-109.239685,,,,,,
1483614215.921259,0.095152,0.058358,-0.326788,-0.063393,-0.018390,0.180537,0.094847,-0.058325,-0.993782,-0.026747,-0.070673,-0.033913,-35.747723,0.364990,-109.539551,,,,,,
1483614215.941279,0.092920,0.059471,-0.321963,-0.127361,-0.045562,0.242580,0.092622,-0.059436,-0.993926,-0.027406,-0.045651,-0.015458,-35.371868,0.514755,-109.314758,,,,,,
1483614215.961268,0.092011,0.057091,-0.317436,-0.126319,-0.023215,0.196423,0.091731,-0.057060,-0.994148,-0.019237,-0.010872,-0.002999,-35.595974,0.739426,-109.766235,,,,,,
1483614215.981257,0.091166,0.055601,-0.314033,-0.018547,-0.003106,0.133536,0.090899,-0.055572,-0.994308,0.002011,0.018585,-0.012543,-35.595974,0.739426,-109.766235,,,,,,
1483614216.001276,0.091083,0.056748,-0.312197,0.070124,-0.004413,0.091143,0.090811,-0.056718,-0.994252,0.009562,0.010972,-0.016414,-36.118816,1.042114,-108.493469,,,,,,
1483614216.021265,0.090917,0.058383,-0.309827,0.047843,-0.046066,0.153494,0.090637,-0.058350,-0.994173,0.014694,-0.012863,-0.010496,-35.669125,1.040543,-109.092834,,,,,,
1483614216.041285,0.089022,0.058664,-0.306124,-0.031845,-0.105189,0.193515,0.088752,-0.058630,-0.994327,0.015298,-0.001474,0.004214,-35.894131,1.040878,-109.093201,,,,,,
1483614216.061274,0.086992,0.057195,-0.302796,-0.077370,-0.127817,0.133954,0.086740,-0.057164,-0.994590,0.011663,0.018529,0.028571,-35.896008,0.665878,-109.091309,,,,,,
1483614216.081293,0.085000,0.056333,-0.301082,-0.018962,-0.059286,0.053218,0.084763,-0.056303,-0.994809,0.010330,0.030103,0.037839,-35.896008,0.665878,-109.091309,,,,,,
1483614216.101282,0.085405,0.056718,-0.300513,0.114889,0.024717,0.029019,0.085164,-0.056688,-0.994753,0.015865,0.025132,0.033709,-36.120358,0.815872,-109.317383,,,,,,
1483614216.121302,0.086561,0.059262,-0.299989,0.114486,0.073532,0.044369,0.086301,-0.059228,-0.994507,0.022281,0.007516,0.034332,-36.344463,0.966675,-109.018433,,,,,,
1483614216.141291,0.088928,0.060941,-0.298783,0.046285,0.048490,0.083968,0.088646,-0.060903,-0.994200,0.028175,-0.002101,0.025755,-35.969830,0.891113,-109.017517,,,,,,
1483614216.161311,0.089139,0.061143,-0.297518,-0.015094,-0.000839,0.041784,0.088854,-0.061105,-0.994169,0.021757,0.016946,0.038312,-36.345165,0.816788,-108.942688,,,,,,
1483614216.181300,0.089942,0.059471,-0.297658,-0.034113,0.007577,-0.041578,0.089662,-0.059436,-0.994197,0.016341,0.029025,0.061305,-36.345165,0.816788,-108.942688,,,,,,
1483614216.201319,0.091619,0.059438,-0.299712,0.046343,0.129392,-0.134692,0.091329,-0.059403,-0.994047,0.021083,0.044312,0.080824,-36.568813,1.042801,-108.494141,,,,,,
1483614216.221308,0.096982,0.061217,-0.303467,0.133489,0.347848,-0.204538,0.096648,-0.061179,-0.993437,0.008302,0.034736,0.118650,-36.118938,1.041779,-108.718506,,,,,,
1483614216.241328,0.106660,0.063495,-0.308765,0.137920,0.511467,-0.302691,0.106243,-0.063452,-0.992314,-0.001949,0.065161,0.110615,-35.820553,0.740997,-108.941528,,,,,,
1483614216.261317,0.119265,0.064591,-0.320434,0.103839,0.683571,-0.739176,0.118735,-0.064546,-0.990826,0.045038,0.109270,0.188305,-35.671871,0.515198,-109.315186,,,,,,
1483614216.281336,0.138605,0.065106,-0.341931,0.226493,1.072696,-1.327416,0.137869,-0.065060,-0.988311,0.000543,0.217633,0.275940,-35.671871,0.515198,-109.315186,,,,,,
1483614216.301325,0.171819,0.067837,-0.384348,0.637574,1.839771,-2.622731,0.170582,-0.067785,-0.983009,-0.080403,0.391623,0.404106,-34.998745,0.139191,-109.312317,,,,,,
1483614216.321314,0.228267,0.069643,-0.453978,0.808602,3.139652,-3.777551,0.225741,-0.069587,-0.971699,-0.183627,0.344108,0.685963,-31.183193,-1.519974,-111.623291,,,,,,
1483614216.341334,0.316632,0.063062,-0.539040,0.863934,4.719309,-4.383922,0.310749,-0.063020,-0.948400,-0.089390,0.307527,0.838095,-28.036068,-1.976486,-112.816345,,,,,,
1483614216.361323,0.431320,0.048930,-0.631112,1.096081,5.899957,-4.644248,0.417570,-0.048910,-0.907327,-0.032667,0.303259,0.899042,-23.766460,-3.033203,-113.029602,,,,,,
1483614216.381342,0.565717,0.022603,-0.724475,1.067559,6.972125,-4.862282,0.535885,-0.022601,-0.843989,-0.032756,0.499728,0.914667,-23.766460,-3.033203,-113.029602,,,,,,
1483614216.401331,0.712334,-0.023708,-0.825886,1.251579,7.512011,-6.005908,0.653418,0.023706,-0.756626,-0.013190,0.843573,0.780643,-17.767330,-3.192429,-113.169861,,,,,,
1483614216.421351,0.853248,-0.108979,-0.946852,1.238187,7.323995,-8.192096,0.748950,0.108763,-0.653639,0.076260,1.241838,0.525770,-5.982204,-1.775986,-107.084229,,,,,,
1483614216.441340,0.968441,-0.243675,-1.079247,0.992087,6.636574,-9.814492,0.799660,0.241271,-0.549847,0.087989,0.953751,0.209133,0.113728,1.675888,-99.742310,,,,,,
1483614216.461359,1.049018,-0.393473,-1.203056,0.963381,5.620794,-9.147268,0.800686,0.383398,-0.460335,-0.019924,0.397898,0.280449,4.422916,7.534134,-89.940186,,,,,,
1483614216.481348,1.110737,-0.537510,-1.306950,0.423312,5.311627,-8.258376,0.769674,0.511999,-0.381391,0.207697,0.389612,0.275174,4.422916,7.534134,-89.940186,,,,,,
1483614216.501368,1.162362,-0.682640,-1.382151,-0.564886,4.421339,-7.712891,0.712087,0.630843,-0.308170,0.458018,0.539109,-0.169933,7.386402,14.219833,-79.844177,,,,,,
1483614216.521357,1.197940,-0.819483,-1.443054,-0.328496,3.534001,-6.835428,0.635698,0.730793,-0.248655,0.687849,0.665203,-0.509432,8.325642,21.058563,-69.751953,,,,,,
1483614216.541376,1.191759,-0.929621,-1.526709,0.983670,2.436004,-5.634246,0.555683,0.801393,-0.221327,0.951977,0.555663,-0.747362,5.920734,33.239746,-51.366455,,,,,,
1483614216.561365,1.123551,-1.000859,-1.638128,1.579043,0.380018,-3.879503,0.486507,0.841935,-0.233359,1.518223,0.232787,-0.764459,4.220570,37.675232,-46.066162,,,,,,
1483614216.581385,1.029679,-1.041092,-1.719701,0.337464,-2.245127,-2.111796,0.433091,0.862956,-0.260266,1.637587,0.131688,-0.599033,4.220570,37.675232,-46.066162,,,,,,
1483614216.601374,0.957024,-1.065055,-1.730925,-0.621826,-3.283731,-0.530732,0.396034,0.874815,-0.279025,1.634392,-0.051772,-0.194226,3.112339,40.829910,-44.058594,,,,,,
1483614216.621394,0.927940,-1.055283,-1.705918,0.150447,-2.075109,1.496889,0.394576,0.870040,-0.295535,1.242783,-0.170012,0.206515,2.144016,42.181122,-44.216858,,,,,,
1483614216.641383,0.932708,-1.012948,-1.666454,0.528757,-1.180110,2.632675,0.425203,0.848396,-0.315320,0.862196,-0.126136,0.199125,1.761829,41.199860,-48.787476,,,,,,
1483614216.661402,0.947493,-0.968739,-1.630132,0.443522,-0.485935,1.974728,0.459842,0.824172,-0.330584,0.560971,0.233323,0.200060,2.650471,39.243805,-51.926392,,,,,,
1483614216.681391,0.967157,-0.950564,-1.619231,0.212915,1.374593,0.352681,0.478508,0.813743,-0.329928,0.101296,0.476433,0.541918,2.650471,39.243805,-51.926392,,,,,,
1483614216.701380,1.013596,-0.946415,-1.633919,0.685062,3.694582,-0.196196,0.496169,0.811325,-0.309141,-0.144546,0.025696,0.552992,3.242878,37.890457,-53.568665,,,,,,
1483614216.721378,1.082188,-0.943027,-1.664667,0.867774,5.174064,-0.351838,0.518614,0.809340,-0.275696,-0.175765,-0.339689,0.408631,3.617100,37.592026,-52.141663,,,,,,
1483614216.741367,1.164132,-0.939981,-1.693366,0.863361,4.949796,-0.112090,0.541702,0.807547,-0.233296,0.000718,-0.525092,-0.044735,3.319080,37.672195,-48.992493,,,,,,
1483614216.761385,1.216037,-0.931723,-1.715350,0.603047,2.585048,0.335595,0.559311,0.802649,-0.207186,0.204178,-0.563864,-0.430204,3.397541,37.682312,-42.167419,,,,,,
1483614216.781374,1.242624,-0.913546,-1.716412,0.208266,0.798374,1.173060,0.578338,0.791675,-0.196915,0.216294,-0.567325,-0.105774,3.397541,37.682312,-42.167419,,,,,,
1483614216.801394,1.264409,-0.876567,-1.702199,0.188308,0.566694,2.345062,0.609998,0.768547,-0.192972,0.214358,-0.521736,0.307825,3.246540,37.384018,-41.191162,,,,,,
1483614216.821383,1.295556,-0.824536,-1.683824,0.125624,1.093358,2.754928,0.653344,0.734233,-0.184510,0.265678,-0.288874,0.327149,3.915653,36.257233,-41.709595,,,,,,
1483614216.841403,1.334110,-0.762567,-1.670271,0.521218,1.574961,3.404554,0.702906,0.690780,-0.169546,0.290273,-0.080062,0.099417,4.506458,34.529694,-42.825073,,,,,,
1483614216.861392,1.372226,-0.680314,-1.662641,0.668782,1.766181,4.593820,0.762100,0.629037,-0.153351,0.620133,-0.526971,0.114411,6.274250,28.446686,-46.391907,,,,,,
1483614216.881412,1.407426,-0.583079,-1.667107,1.209389,1.925869,4.625245,0.823656,0.550597,-0.135771,0.861875,-0.390074,-0.126345,6.274250,28.446686,-46.391907,,,,,,
1483614216.901401,1.446732,-0.496039,-1.675677,0.770341,2.405636,4.026728,0.872715,0.475945,-0.108832,0.481136,-0.036416,-0.199274,7.154972,24.767670,-48.172241,,,,,,
1483614216.921420,1.495780,-0.425377,-1.685625,1.054734,2.835768,3.115229,0.908321,0.412664,-0.068267,0.303287,0.367182,-0.274567,7.365147,21.915695,-49.282654,,,,,,
1483614216.941409,1.537901,-0.367188,-1.719138,1.972242,2.667912,2.757443,0.932836,0.358992,-0.030697,0.309428,0.118196,-0.262318,6.903278,19.516754,-49.046387,,,,,,
1483614216.961429,1.560239,-0.313518,-1.757047,1.594213,0.915308,2.551377,0.951201,0.308407,-0.010042,0.310609,-0.140713,-0.415846,6.903278,19.516754,-49.046387,,,,,,
1483614216.981417,1.554932,-0.264991,-1.772652,0.244378,-0.584754,2.462902,0.964974,0.261900,-0.015310,0.178749,-0.047377,-0.522822,6.210590,15.918716,-48.429382,,,,,,
1483614217.001436,1.531401,-0.213668,-1.764297,-0.538627,-1.658644,2.614640,0.976502,0.212046,-0.038489,0.016373,0.085150,-0.388833,6.203693,14.642166,-49.473083,,,,,,
1483614217.021425,1.486139,-0.167141,-1.748949,-0.623346,-2.996504,2.116996,0.982533,0.166364,-0.083378,-0.084813,0.528018,-0.563000,5.743137,12.764374,-51.789307,,,,,,
1483614217.041415,1.408651,-0.140036,-1.734719,-0.473502,-4.493049,0.975775,0.977223,0.139578,-0.159856,-0.178288,0.813943,-0.568049,6.555439,10.656647,-56.127563,,,,,,
1483614217.061435,1.319245,-0.137882,-1.730441,0.003631,-4.136194,-0.358703,0.959336,0.137446,-0.246544,-0.548981,0.967825,-0.044899,8.038822,8.240829,-65.188293,,,,,,
1483614217.081424,1.289806,-0.161685,-1.750512,1.220238,0.878363,-2.117672,0.948250,0.160982,-0.273691,-1.437401,1.275267,1.322137,8.038822,8.240829,-65.188293,,,,,,
1483614217.101444,1.333197,-0.215895,-1.798724,1.441144,2.882001,-3.836319,0.949343,0.214222,-0.229906,-0.849566,1.095303,0.718263,7.671284,9.741272,-65.271301,,,,,,
1483614217.121433,1.359200,-0.301829,-1.829325,-0.066700,0.754042,-4.834179,0.933500,0.297267,-0.200527,-0.204496,0.691472,-0.015217,8.286274,12.223083,-60.107788,,,,,,
1483614217.141452,1.362881,-0.398252,-1.834867,-1.106061,0.123678,-4.579204,0.901889,0.387807,-0.190266,0.018826,0.372446,0.295933,8.607746,16.128433,-56.226868,,,,,,
1483614217.161441,1.362405,-0.484318,-1.826153,-1.206218,-0.371282,-4.120685,0.865846,0.465605,-0.183093,-0.298631,0.402422,0.131244,8.627674,19.734085,-52.419861,,,,,,
1483614217.181461,1.349343,-0.578324,-1.832049,-0.438374,-0.717224,-5.000231,0.816931,0.546621,-0.183929,-0.407812,0.882868,-0.354127,8.627674,19.734085,-52.419861,,,,,,
1483614217.201450,1.307654,-0.677108,-1.865826,0.406017,-1.367977,-5.053171,0.752559,0.626542,-0.202731,-0.213207,0.487045,-0.516293,7.463902,26.345367,-46.079651,,,,,,
1483614217.221468,1.261662,-0.757301,-1.903587,-0.120649,-0.376048,-3.652481,0.692246,0.686963,-0.221085,0.423660,-0.216290,-0.142990,6.586353,30.550903,-43.252014,,,,,,
1483614217.241457,1.214484,-0.834821,-1.909082,-1.937094,-4.241050,-3.860217,0.629145,0.741176,-0.234167,0.537832,0.188008,-1.479044,5.182362,34.531372,-41.023987,,,,,,
1483614217.261477,1.128277,-0.925718,-1.896479,-1.820101,-5.246142,-4.139852,0.543345,0.799052,-0.257471,0.363851,0.178136,-0.306647,4.444935,36.934128,-39.912109,,,,,,
1483614217.281466,0.984858,-1.006134,-1.953600,0.120950,-4.413723,-4.293602,0.445867,0.844769,-0.295917,0.293467,0.358279,-0.272076,4.444935,36.934128,-39.912109,,,,,,
1483614217.301486,0.808023,-1.055054,-2.077861,1.787711,-2.684162,-3.740099,0.356532,0.869927,-0.340753,0.223455,0.235405,-0.276114,1.174946,42.938980,-39.947021,,,,,,
1483614217.321475,0.628586,-1.053386,-2.243965,3.192474,-1.382064,-2.634510,0.290844,0.869103,-0.400087,0.338597,-0.147240,-0.463301,-0.312160,45.565521,-40.412415,,,,,,
1483614217.341495,0.501522,-1.017150,-2.365251,3.095639,-0.952514,-0.916879,0.252780,0.850613,-0.461042,0.801541,-0.506649,-0.437396,-1.953686,47.366394,-41.473877,,,,,,
1483614217.361484,0.468854,-0.961055,-2.387288,2.650919,-0.649126,1.868022,0.258763,0.819796,-0.510858,1.086376,-0.909808,-0.320853,-3.451107,48.041260,-43.054504,,,,,,
1483614217.381503,0.504509,-0.885139,-2.322364,2.225228,-0.940861,4.383565,0.306066,0.774003,-0.554295,1.142893,-0.908204,-0.189068,-3.451107,48.041260,-43.054504,,,,,,
1483614217.401492,0.558390,-0.812777,-2.209312,0.421780,-1.889472,5.174941,0.364244,0.726199,-0.583062,1.152083,-0.584216,0.097726,-2.710232,46.535339,-46.270874,,,,,,
1483614217.421512,0.580232,-0.820392,-2.081867,-4.994180,-4.379788,2.160179,0.373848,0.731413,-0.570326,0.073020,1.148393,0.397642,1.003223,40.288849,-56.884033,,,,,,
1483614217.441500,0.626215,-0.894017,-1.969464,-4.373574,-0.347616,0.928776,0.367054,0.779594,-0.507449,0.026683,-0.242362,1.104647,1.446415,39.085815,-58.452393,,,,,,
1483614217.461489,0.725787,-0.918455,-1.860540,-2.597503,1.148617,2.236569,0.402913,0.794665,-0.454059,-0.165517,-0.242480,0.736728,1.075871,39.764526,-56.356323,,,,,,
1483614217.481508,0.851666,-0.921810,-1.750150,-2.466695,2.221977,2.257886,0.454722,0.796697,-0.398123,0.148717,-0.018575,0.418677,1.075871,39.764526,-56.356323,,,,,,
1483614217.501498,0.991316,-0.906920,-1.634990,-2.253006,2.103368,2.788049,0.515582,0.787610,-0.337411,0.318478,-0.300046,0.103890,2.047153,38.939316,-55.525757,,,,,,
1483614217.521518,1.099132,-0.873022,-1.535327,-1.726831,1.098185,3.004487,0.572360,0.766274,-0.291939,0.390042,-0.198891,0.070168,4.731739,35.638565,-53.330261,,,,,,
1483614217.541507,1.174082,-0.833422,-1.458534,-1.277734,0.862332,2.859582,0.620129,0.740236,-0.259788,0.243610,-0.108004,0.009101,5.846607,33.685806,-54.068787,,,,,,
1483614217.561527,1.236480,-0.782778,-1.405804,-0.397767,1.636240,3.118476,0.669705,0.705252,-0.232625,0.018313,-0.126990,0.112600,6.583775,31.208359,-54.955261,,,,,,
1483614217.581516,1.303367,-0.716384,-1.385633,0.733650,3.205077,3.667246,0.727376,0.656662,-0.199296,0.059764,-0.098068,0.194779,6.583775,31.208359,-54.955261,,,,,,
1483614217.601535,1.366032,-0.641005,-1.396728,1.515832,3.279072,3.383723,0.784751,0.598001,-0.162973,0.011590,0.171347,0.067056,7.469898,28.505936,-55.690430,,,,,,
1483614217.621524,1.402552,-0.580374,-1.419472,1.436846,2.027585,2.542572,0.824450,0.548337,-0.140033,0.071058,0.131686,-0.205884,8.202961,25.129639,-55.822449,,,,,,
1483614217.641544,1.422258,-0.529859,-1.449635,1.889221,1.681466,2.285014,0.853377,0.505411,-0.127700,0.085191,0.070776,-0.217653,8.928135,20.178375,-55.946594,,,,,,
1483614217.661533,1.424701,-0.478455,-1.493012,2.419227,0.863459,2.189664,0.878251,0.460408,-0.129229,-0.135682,0.153560,-0.354459,8.996357,18.828156,-56.014771,,,,,,
1483614217.681551,1.415666,-0.440867,-1.536033,1.907223,0.402417,1.182124,0.893521,0.426724,-0.139735,-0.179273,0.332462,-0.364018,8.996357,18.828156,-56.014771,,,,,,
1483614217.701540,1.409424,-0.420338,-1.565438,1.316186,0.195000,0.655224,0.901090,0.408069,-0.146686,-0.258237,0.072903,-0.288510,9.138737,17.401489,-56.982422,,,,,,
1483614217.721548,1.400466,-0.407209,-1.587752,0.914495,-0.038595,0.365995,0.904942,0.396048,-0.155647,-0.060200,0.109872,-0.159355,8.760914,16.876511,-57.355408,,,,,,
1483614217.741537,1.401037,-0.400716,-1.596746,0.327535,0.352388,0.220468,0.907546,0.390078,-0.155562,0.014558,-0.011645,-0.037889,8.980412,15.825378,-57.874756,,,,,,
1483614217.761556,1.409886,-0.399722,-1.602829,0.196339,0.675448,-0.212966,0.909269,0.389162,-0.147587,0.050722,0.156019,0.045033,8.831608,16.050842,-57.726135,,,,,,
1483614217.781545,1.427929,-0.412496,-1.598737,-0.626734,0.854584,-0.781927,0.906790,0.400897,-0.130439,-0.046530,0.140058,0.023338,8.831608,16.050842,-57.726135,,,,,,
1483614217.801565,1.453045,-0.435438,-1.577965,-1.296224,0.830033,-1.203755,0.900407,0.421807,-0.106517,-0.160432,0.161460,0.004847,9.058186,16.276855,-56.826904,,,,,,
1483614217.821554,1.484771,-0.469326,-1.551872,-1.281226,1.236330,-1.859726,0.888575,0.452286,-0.076629,-0.213938,0.180145,0.111037,8.686192,16.729645,-55.329712,,,,,,
1483614217.841543,1.524592,-0.523531,-1.533465,-0.786569,1.674013,-3.187760,0.865135,0.499942,-0.040001,-0.100242,0.184354,0.036156,8.173756,18.836472,-51.291077,,,,,,
1483614217.861562,1.560556,-0.605267,-1.526465,-0.203210,1.531844,-4.580370,0.822307,0.568982,-0.008421,-0.028636,-0.052121,-0.125093,7.590427,21.768402,-47.256592,,,,,,
1483614217.881551,1.582495,-0.709530,-1.524964,-0.018827,0.661828,-5.607152,0.758616,0.651477,0.008875,-0.146846,-0.068439,-0.291071,7.590427,21.768402,-47.256592,,,,,,
1483614217.901571,1.589053,-0.833716,-1.516715,-0.335166,-0.296441,-6.623530,0.672017,0.740434,0.012270,-0.023763,0.052992,-0.263063,6.412708,25.752213,-42.553284,,,,,,
1483614217.921560,1.600446,-0.981652,-1.495635,-0.459793,-0.054167,-7.981673,0.555406,0.831416,0.016472,0.285506,-0.025630,0.152793,5.013645,30.486160,-38.003967,,,,,,
1483614217.941580,1.624147,-1.157991,-1.483422,0.530081,1.087464,-9.342167,0.400609,0.915999,0.021393,0.494502,-0.180632,0.398712,3.241276,35.521194,-33.081909,,,,,,
1483614217.961569,1.707257,-1.314139,-1.469464,0.350523,4.838826,-6.285503,0.251489,0.967244,0.034533,-0.188103,-0.639729,0.255933,-4.939037,48.153030,-20.032288,,,,,,
1483614217.981588,1.769534,-1.409910,-1.496935,1.495175,3.982361,-3.881693,0.157040,0.987086,0.031627,0.156146,-0.624522,-0.044094,-4.939037,48.153030,-20.032288,,,,,,
1483614218.001577,1.513781,-1.484893,-1.805937,2.483181,1.611626,-3.523148,0.085658,0.996313,-0.004889,0.167470,-0.565786,-0.214288,-9.045559,51.317139,-14.729309,,,,,,
1483614218.021597,0.252986,-1.512206,-3.075771,2.627434,-0.577094,-3.603537,0.014656,0.998284,-0.056693,0.082878,-0.726617,-0.265436,-12.105526,54.026215,-11.747437,,,,,,
1483614218.041586,-0.572143,-1.455318,2.424223,1.602973,-3.219699,-3.763373,-0.062385,0.993340,-0.096872,0.113121,-0.661064,-0.303625,-15.018551,56.356567,-11.088440,,,,,,
1483614218.061605,-0.956830,-1.392656,2.115991,0.183872,-4.182227,-3.763190,-0.144837,0.984175,-0.102087,0.149338,-0.622954,-0.063532,-19.126461,59.812134,-11.486877,,,,,,
1483614218.081594,-1.199895,-1.304894,1.926951,0.405157,-1.710229,-5.683240,-0.244911,0.964856,-0.095246,0.316383,1.593189,0.359726,-19.126461,59.812134,-11.486877,,,,,,
1483614218.101614,-1.267620,-1.179624,1.835019,0.685074,2.442976,-6.714573,-0.363884,0.924463,-0.113830,-0.191612,2.168967,0.157470,-21.146282,60.791046,-10.894775,,,,,,
1483614218.121603,-1.229240,-1.062702,1.777489,0.505413,5.528812,-4.843657,-0.458410,0.873673,-0.162960,-0.644877,1.200668,-0.051289,-26.014935,61.925354,-9.557739,,,,,,
1483614218.141622,-1.155459,-1.039998,1.745014,-1.117097,4.077346,0.500723,-0.463183,0.862403,-0.204260,-0.681241,-0.112312,-0.442240,-31.408855,63.059662,-8.746521,,,,,,
1483614218.161611,-1.175173,-1.087733,1.692807,-2.506689,-0.209127,1.967951,-0.428615,0.885576,-0.179009,-0.325154,-0.251757,-0.311958,-33.062328,62.312927,-8.220276,,,,,,
1483614218.181631,-1.281237,-1.137722,1.610264,-2.529328,-2.017800,1.481001,-0.402192,0.907680,-0.119827,-0.155470,-0.356487,0.142822,-33.062328,62.312927,-8.220276,,,,,,
1483614218.201620,-1.372677,-1.165767,1.521267,-1.583259,0.827884,0.610790,-0.386338,0.919091,-0.077558,0.072694,-0.415993,0.842237,-31.263378,61.937714,-6.565735,,,,,,
1483614218.221639,-1.338419,-1.168711,1.514541,0.683521,2.268790,-0.090868,-0.380820,0.920247,-0.090122,0.204703,-0.199742,0.329013,-30.963741,61.714523,-5.064148,,,,,,
1483614218.241628,-1.247181,-1.159504,1.579696,1.504686,0.953163,-0.025188,-0.379042,0.916605,-0.127133,0.156889,0.051794,0.166653,-31.265163,61.415207,-4.913086,,,,,,
1483614218.261617,-1.200188,-1.152837,1.636140,0.964949,-0.854271,0.115653,-0.378339,0.913919,-0.147008,0.100125,0.149878,0.039938,-31.939266,61.714401,-6.115601,,,,,,
1483614218.281637,-1.193618,-1.148649,1.671829,0.696182,-1.406439,0.028354,-0.380920,0.912211,-0.150899,0.094894,0.063878,0.010015,-31.939266,61.714401,-6.115601,,,,,,
1483614218.301626,-1.188267,-1.143602,1.703077,0.692738,-0.928737,0.011337,-0.384373,0.910132,-0.154652,0.076130,0.010355,0.063847,-30.887905,62.086380,-7.090881,,,,,,
1483614218.321645,-1.169442,-1.138666,1.732124,0.633813,-0.000318,-0.033155,-0.385525,0.908076,-0.163613,0.115581,-0.005335,0.168435,-30.811138,62.460907,-7.317688,,,,,,
1483614218.341634,-1.140617,-1.132078,1.754985,0.525660,0.539191,-0.141953,-0.386078,0.905297,-0.177147,0.154282,0.022407,0.102471,-30.586330,62.460022,-7.692322,,,,,,
1483614218.361654,-1.116792,-1.125092,1.770252,0.413384,0.451208,-0.191237,-0.387423,0.902307,-0.189064,0.151888,0.058661,0.090614,-30.811260,62.534454,-8.293030,,,,,,
1483614218.381643,-1.098666,-1.117776,1.782992,0.427600,0.269829,-0.220786,-0.389801,0.899129,-0.199052,0.110550,0.106089,0.096360,-30.811260,62.534454,-8.293030,,,,,,
1483614218.401663,-1.082163,-1.109012,1.795177,0.429584,0.319811,-0.292905,-0.393406,0.895259,-0.209148,0.046131,0.160146,0.156887,-31.560802,62.684677,-8.894897,,,,,,
1483614218.421652,-1.069478,-1.099930,1.800074,0.231471,0.465734,-0.389270,-0.397836,0.891176,-0.218020,0.023568,0.226790,0.194415,-31.259167,63.058533,-9.346252,,,,,,
1483614218.441671,-1.065090,-1.091260,1.793671,-0.006535,0.526386,-0.491016,-0.403620,0.887209,-0.223498,0.065882,0.284971,0.269687,-32.010815,62.759216,-9.645935,,,,,,
1483614218.461660,-1.067684,-1.082505,1.777831,-0.157181,0.604795,-0.600214,-0.410988,0.883136,-0.226187,0.180809,0.356488,0.338141,-32.235699,62.759903,-9.421265,,,,,,
1483614218.481680,-1.072345,-1.073372,1.758970,-0.168531,0.566527,-0.621078,-0.419104,0.878815,-0.228115,0.269034,0.345535,0.387387,-32.235699,62.759903,-9.421265,,,,,,
1483614218.501669,-1.080366,-1.063722,1.739773,-0.204168,0.355007,-0.670635,-0.428382,0.874169,-0.228730,0.299109,0.318305,0.422395,-33.510983,62.687027,-9.272827,,,,,,
1483614218.521688,-1.097149,-1.054005,1.715119,-0.390582,0.200571,-0.734181,-0.439698,0.869409,-0.225373,0.276094,0.284277,0.417222,-34.185909,62.688278,-9.123840,,,,,,
1483614218.541677,-1.120778,-1.046409,1.679826,-0.795909,0.486832,-0.724209,-0.450834,0.865631,-0.217788,0.257658,0.326706,0.438293,-34.636166,62.614288,-8.899170,,,,,,
1483614218.561697,-1.155987,-1.044721,1.625944,-1.445246,0.531960,-0.567745,-0.459558,0.864784,-0.202372,0.228769,0.433037,0.304911,-35.238247,62.165649,-8.597839,,,,,,
1483614218.581686,-1.211182,-1.051311,1.554346,-1.974313,0.260579,-0.262745,-0.464678,0.868075,-0.174701,0.153658,0.351545,0.291797,-35.238247,62.165649,-8.597839,,,,,,
1483614218.601705,-1.285523,-1.062700,1.463315,-2.518664,0.253568,-0.129820,-0.466852,0.873672,-0.136915,0.051600,0.115158,0.268461,-35.764812,61.718445,-7.246399,,,,,,
1483614218.621694,-1.378454,-1.075986,1.351271,-2.914305,0.267876,0.158971,-0.466108,0.880059,-0.090775,0.033262,-0.116829,0.192795,-36.442822,60.897736,-5.068298,,,,,,
1483614218.641683,-1.477566,-1.096854,1.235015,-2.644523,0.108121,0.931942,-0.454415,0.889776,-0.042489,0.203164,0.062769,-0.019371,-35.996227,60.074203,-3.638489,,,,,,
1483614218.661703,-1.552179,-1.122994,1.149568,-1.566290,0.123551,1.307064,-0.432910,0.901401,-0.008061,0.225040,0.234982,-0.164242,-35.924664,59.251114,-2.284241,,,,,,
1483614218.681692,-1.605942,-1.147412,1.089332,-1.257754,-0.126224,1.116077,-0.410594,0.911704,0.014437,0.218471,0.486871,-0.319307,-35.924664,59.251114,-2.284241,,,,,,
1483614218.701711,-1.699168,-1.164179,1.005991,-1.864116,-1.301231,0.945420,-0.392250,0.918464,0.050632,0.154732,0.368569,-0.375263,-34.802334,58.650482,-1.604584,,,,,,
1483614218.721670,-1.840762,-1.173722,0.889308,-2.270733,-1.833405,0.892659,-0.372715,0.922196,0.103138,-0.024578,0.272155,-0.256214,-32.858303,57.373795,-0.770264,,,,,,
1483614218.741690,-1.986629,-1.174891,0.763142,-2.216583,-1.071776,0.896568,-0.352779,0.922648,0.155781,-0.209370,0.253698,-0.033482,-31.438183,56.322800,-0.012878,,,,,,
1483614218.761679,-2.091784,-1.176738,0.652009,-1.617625,0.335534,1.191044,-0.333001,0.923358,0.191101,-0.368430,0.065869,0.109223,-30.845150,54.897385,0.295105,,,,,,
1483614218.781698,-2.171756,-1.187575,0.552927,-1.213650,0.651852,1.583707,-0.308398,0.927465,0.211421,-0.391568,-0.117071,-0.114147,-30.845150,54.897385,0.295105,,,,,,
1483614218.801687,-2.262421,-1.195317,0.443098,-1.575026,0.510771,1.497085,-0.282451,0.930332,0.233889,-0.291844,-0.204029,-0.266482,-29.649090,54.071167,0.676056,,,,,,
1483614218.821707,-2.368430,-1.190396,0.315547,-2.079992,0.780401,1.338470,-0.259311,0.928516,0.265736,-0.154080,-0.244358,-0.352070,-29.727459,53.396286,0.679291,,,,,,
1483614218.841696,-2.463727,-1.171924,0.192995,-2.298545,0.893447,1.024899,-0.243565,0.921499,0.302514,-0.007198,-0.247046,-0.515313,-28.538830,51.070297,1.217712,,,,,,
1483614218.861716,-2.542978,-1.144655,0.090248,-2.339025,0.717160,0.726345,-0.232928,0.910568,0.341484,0.078387,-0.211196,-0.528053,-28.320080,49.795319,1.449432,,,,,,
1483614218.881705,-2.594357,-1.109879,0.011172,-2.435600,1.249619,0.330761,-0.231426,0.895645,0.379818,0.053921,-0.228439,-0.444485,-28.320080,49.795319,1.449432,,,,,,
1483614218.901724,-2.615276,-1.068571,-0.046971,-2.442534,1.606580,-0.005708,-0.241821,0.876514,0.416229,-0.097382,-0.290179,-0.481521,-28.551037,48.595795,1.530090,,,,,,
1483614218.921713,-2.620773,-1.030364,-0.087238,-1.926450,1.381886,-0.106840,-0.256014,0.857486,0.446289,-0.216917,-0.416446,-0.437393,-28.559734,46.870575,1.388702,,,,,,
1483614218.941733,-2.615491,-1.005791,-0.110318,-1.008783,1.180750,-0.081278,-0.268870,0.844586,0.463016,-0.242925,-0.546048,-0.289829,-30.899792,43.873886,1.250153,,,,,,
1483614218.961722,-2.595423,-0.999079,-0.113302,0.090189,1.154297,-0.116178,-0.281045,0.840973,0.462361,-0.153998,-0.584229,-0.107411,-31.802898,43.274918,1.026825,,,,,,
1483614218.981741,-2.549684,-1.009693,-0.091607,1.135306,1.546834,-0.287985,-0.296895,0.846668,0.441595,-0.031627,-0.452061,0.116327,-31.802898,43.274918,1.026825,,,,,,
1483614219.001730,-2.477792,-1.029192,-0.046477,1.590187,1.667681,-0.386414,-0.317614,0.856883,0.406046,0.003131,-0.242503,0.231863,-32.625713,43.725922,0.873291,,,,,,
1483614219.021750,-2.420199,-1.045071,-0.009208,0.772247,0.942625,-0.107149,-0.331431,0.864960,0.376825,-0.042668,0.033447,0.368125,-33.596508,44.552597,1.017731,,,,,,
1483614219.041739,-2.414307,-1.040133,-0.017003,-0.776471,0.737890,0.006328,-0.336482,0.862471,0.378052,-0.222585,0.490281,1.011703,-36.213726,46.057281,1.531281,,,,,,
1483614219.061728,-2.406872,-1.032725,-0.033433,-0.231477,0.986694,0.135775,-0.343557,0.858699,0.380270,-0.034602,0.569249,1.172388,-36.290462,45.756744,1.082672,,,,,,
1483614219.081747,-2.402163,-1.045830,-0.025727,1.066654,-0.695382,0.329277,-0.337731,0.865341,0.370301,0.320245,0.336457,0.305938,-36.290462,45.756744,1.082672,,,,,,
1483614219.101736,-2.392746,-1.061711,-0.006864,0.563109,0.148674,0.074514,-0.331805,0.873191,0.356992,0.401217,-0.164847,0.016329,-36.440838,45.681961,1.082794,,,,,,
1483614219.121756,-2.371917,-1.062329,0.001337,0.139884,0.779998,-0.123866,-0.338792,0.873492,0.349617,0.130647,-0.030871,-0.022926,-36.062862,46.207413,1.755768,,,,,,
1483614219.141745,-2.340146,-1.073963,0.020120,1.227107,0.607654,0.201512,-0.342404,0.879096,0.331586,0.022427,0.488900,-0.114896,-36.437191,46.357727,1.604431,,,,,,
1483614219.161764,-2.302240,-1.101676,0.070134,1.941720,-0.859626,0.243302,-0.336459,0.891966,0.301979,-0.273679,0.347490,-1.080909,-36.729626,47.858383,1.746521,,,,,,
1483614219.181753,-2.281810,-1.134032,0.126892,2.122077,-1.848754,0.491600,-0.320515,0.906125,0.276057,-0.425960,-0.147183,-0.901973,-36.729626,47.858383,1.746521,,,,,,
1483614219.201773,-2.257322,-1.171927,0.198486,2.421551,-2.096652,0.472283,-0.300391,0.921501,0.246174,-0.401742,-0.400047,-0.571202,-35.748516,49.057236,1.966980,,,,,,
1483614219.221762,-2.228582,-1.185566,0.254913,0.487199,-0.118819,-0.635702,-0.297367,0.926712,0.229735,-0.547176,-0.607834,0.684221,-34.615353,50.631439,2.560822,,,,,,
1483614219.241781,-2.131544,-1.181947,0.342987,2.233605,0.812102,-1.214754,-0.321064,0.925346,0.201626,-0.313152,-0.481788,-0.079998,-34.533413,52.055725,2.178802,,,,,,
1483614219.261770,-1.917424,-1.197634,0.565213,4.563478,0.043358,-0.849127,-0.342879,0.931179,0.123852,-0.126786,-0.131435,-0.480999,-35.051174,53.555725,1.645538,,,,,,
1483614219.281790,-1.649665,-1.208973,0.844337,4.997303,0.574191,-0.262976,-0.352880,0.935253,0.027889,0.020177,0.056507,-0.222164,-35.051174,53.555725,1.645538,,,,,,
1483614219.301779,-1.424338,-1.206856,1.085689,3.664464,-0.688424,0.159542,-0.352149,0.934501,-0.051947,0.257147,0.222664,-0.456659,-35.788967,56.105209,0.581696,,,,,,
1483614219.321799,-1.337331,-1.198592,1.215246,1.664545,-1.912696,-0.085912,-0.353803,0.931528,-0.084135,0.453809,0.321875,-0.499315,-36.079571,58.128494,-0.853882,,,,,,
1483614219.341788,-1.314315,-1.188392,1.258831,0.535531,-0.120756,-0.385981,-0.360946,0.927770,-0.094661,0.505050,0.145655,-0.223500,-35.549862,59.176117,-1.908325,,,,,,
1483614219.361807,-1.311342,-1.180155,1.255143,-0.219058,0.238911,-0.401448,-0.368037,0.924665,-0.097691,0.514644,-0.049192,-0.113048,-35.623928,59.400681,-2.284546,,,,,,
1483614219.381796,-1.334594,-1.173606,1.232602,-0.282755,-0.074768,-0.448663,-0.376088,0.922152,-0.090523,0.293797,0.034773,0.221886,-35.623928,59.400681,-2.284546,,,,,,
1483614219.401816,-1.299258,-1.166166,1.250394,0.864123,1.364896,-0.116784,-0.379255,0.919248,-0.105590,0.012586,0.092227,0.739608,-36.073544,59.476349,-2.285583,,,,,,
1483614219.421805,-1.238649,-1.160452,1.301879,1.055277,0.087159,0.080980,-0.377122,0.916983,-0.130079,-0.084777,-0.006583,0.182249,-36.672634,59.627701,-1.987244,,,,,,
1483614219.441824,-1.205421,-1.156302,1.349946,0.973615,-0.737422,0.156756,-0.376143,0.915320,-0.143894,0.020598,-0.005851,0.090687,-37.194759,60.302017,-2.966431,,,,,,
1483614219.461813,-1.174618,-1.151612,1.399450,1.042586,-0.685858,0.152002,-0.375489,0.913421,-0.157065,0.157472,0.094925,-0.013345,-36.367748,60.750107,-3.417419,,,,,,
1483614219.481802,-1.143360,-1.143623,1.447069,1.082850,-0.546178,-0.088661,-0.377026,0.910140,-0.171743,0.173520,0.089020,-0.005060,-36.367748,60.750107,-3.417419,,,,,,
1483614219.501822,-1.094697,-1.129225,1.498687,1.489877,0.718639,-0.181082,-0.379834,0.904081,-0.195866,0.042660,0.001604,0.343037,-36.440426,61.274307,-4.020142,,,,,,
1483614219.521811,-1.019502,-1.110896,1.551887,1.220060,1.345924,-0.305374,-0.378100,0.896097,-0.232489,-0.090848,0.031043,0.518011,-36.663891,61.648636,-4.697388,,,,,,
1483614219.541830,-1.000331,-1.098218,1.563103,0.281894,0.018294,-0.436557,-0.383105,0.890398,-0.245810,-0.082608,0.115279,0.373694,-37.339199,61.722610,-6.048767,,,,,,
1483614219.561819,-1.001448,-1.086460,1.563387,0.400530,-0.118578,-0.536793,-0.392170,0.884984,-0.251009,0.031376,0.213023,0.508699,-38.015133,61.573059,-6.424011,,,,,,
1483614219.581839,-1.014457,-1.072687,1.562426,0.266807,-0.911625,-0.606642,-0.405716,0.878487,-0.252299,0.173248,0.348060,0.311396,-38.015133,61.573059,-6.424011,,,,,,
1483614219.601828,-1.038466,-1.063487,1.554874,-0.040675,-0.676742,-0.374924,-0.418602,0.874055,-0.246578,0.265388,0.383498,0.299313,-38.239681,61.648636,-6.274780,,,,,,
1483614219.621847,-1.057122,-1.064824,1.537910,-0.666400,0.004311,-0.040181,-0.422111,0.874704,-0.238152,0.198264,0.243049,0.514458,-38.239483,61.649185,-5.899780,,,,,,
1483614219.641836,-1.107730,-1.077313,1.488555,-1.763234,-0.700656,-0.000898,-0.423810,0.880688,-0.211597,0.078839,0.298969,0.512058,-38.916470,61.274857,-6.123901,,,,,,
1483614219.661856,-1.210057,-1.096383,1.399440,-2.556880,-1.459283,0.084763,-0.427414,0.889561,-0.161241,-0.037979,0.335110,0.556932,-38.617855,60.900879,-5.146606,,,,,,
1483614219.681845,-1.360898,-1.117023,1.273295,-3.278312,-2.070880,0.274271,-0.428739,0.898800,-0.091337,-0.080188,0.310932,0.335081,-38.617855,60.900879,-5.146606,,,,,,
1483614219.701864,-1.537686,-1.134586,1.123412,-3.174772,-1.808152,0.675317,-0.422276,0.906359,-0.013987,-0.041179,0.039136,0.024317,-38.101711,58.804962,-1.910309,,,,,,
1483614219.721841,-1.665954,-1.157243,1.003289,-1.911273,-0.487942,1.536012,-0.400047,0.915699,0.038183,-0.026756,0.148266,-0.304479,-36.833080,57.380325,-0.401276,,,,,,
1483614219.741861,-1.727164,-1.188079,0.931438,-0.872367,0.623992,1.679946,-0.368887,0.927653,0.058157,-0.197046,0.414464,-0.369695,-35.487209,56.479431,0.355255,,,,,,
1483614219.761850,-1.781789,-1.213344,0.869805,-1.119597,-0.723927,1.332359,-0.342130,0.936791,0.073277,-0.395495,0.642051,-0.571141,-34.737545,56.403427,0.431732,,,,,,
1483614219.781870,-1.974283,-1.224462,0.733630,-2.582865,-4.468028,1.148559,-0.312193,0.940623,0.133278,-0.408769,0.689946,-0.366112,-34.737545,56.403427,0.431732,,,,,,
1483614219.801859,-2.195624,-1.213597,0.574170,-2.439162,-2.225376,0.757623,-0.283590,0.936880,0.204531,-0.383143,0.299692,0.718488,-34.290478,55.802979,0.585449,,,,,,
1483614219.821878,-2.299554,-1.201379,0.476841,-1.401783,-0.195945,0.596060,-0.269361,0.932538,0.240454,-0.364443,-0.091244,0.072046,-29.953365,53.172287,1.130096,,,,,,
1483614219.841867,-2.379240,-1.194870,0.397768,-1.284446,-0.453148,0.866458,-0.253552,0.930168,0.265516,-0.315143,-0.298897,-0.331984,-29.508877,52.120834,0.611023,,,,,,
1483614219.861887,-2.473586,-1.184625,0.308021,-1.651735,-0.423494,0.911943,-0.233302,0.926358,0.295688,-0.216222,-0.387189,-0.437182,-29.062893,51.295532,0.840790,,,,,,
1483614219.881876,-2.554904,-1.163241,0.220317,-1.953618,0.120835,0.656404,-0.219431,0.918093,0.330085,-0.091269,-0.422747,-0.587531,-29.062893,51.295532,0.840790,,,,,,
1483614219.901865,-2.623742,-1.132797,0.139665,-2.341463,0.378653,0.597475,-0.209949,0.905602,0.368519,0.058506,-0.453408,-0.618809,-28.393322,50.243973,0.472046,,,,,,
1483614219.921884,-2.674677,-1.090701,0.064546,-2.788541,1.074553,0.370438,-0.207901,0.886951,0.412426,0.085724,-0.327960,-0.600842,-27.730846,47.767548,0.185455,,,,,,
1483614219.941873,-2.698935,-1.044305,0.008981,-2.510435,1.227998,0.095083,-0.215243,0.864575,0.454070,0.010165,-0.295651,-0.528121,-27.965557,45.818024,0.269867,,,,,,
1483614219.961893,-2.703763,-1.008884,-0.021715,-1.554251,0.958416,-0.106586,-0.225896,0.846238,0.482548,-0.081660,-0.373520,-0.486531,-29.023693,44.243835,-0.248901,,,,,,
1483614219.981882,-2.692667,-0.990865,-0.027509,-0.496024,0.749203,-0.336496,-0.237816,0.836500,0.493670,-0.095878,-0.554152,-0.468554,-29.023693,44.243835,-0.248901,,,,,,
1483614220.001901,-2.660075,-0.990232,-0.009110,0.647164,1.009912,-0.521205,-0.254022,0.836153,0.486128,-0.071570,-0.669710,-0.412550,-29.327999,43.418732,-0.620239,,,,,,
1483614220.021890,-2.594535,-1.009339,0.034166,1.845006,1.752903,-0.544705,-0.276953,0.846480,0.454718,0.043554,-0.593306,-0.268607,-29.779202,43.194183,-0.769775,,,,,,
1483614220.041910,-2.495334,-1.045068,0.098360,2.702505,2.505310,-0.210930,-0.302212,0.864959,0.400643,0.170055,-0.386657,-0.066292,-32.093456,45.224426,0.416626,,,,,,
1483614220.061899,-2.384840,-1.087616,0.163813,2.278245,2.505246,0.407546,-0.318976,0.885522,0.337795,0.126028,0.017112,0.325413,-33.657467,47.475983,-0.121979,,,,,,
1483614220.081918,-2.417509,-1.089869,0.115009,-2.533041,-0.340124,1.141897,-0.306450,0.886566,0.346538,0.028481,1.350464,2.330921,-33.657467,47.475983,-0.121979,,,,,,
1483614220.101907,-2.485930,-1.077556,0.037675,-0.300326,-0.106965,0.873212,-0.288675,0.880803,0.375303,0.135980,1.330333,1.411989,-35.301006,48.827530,-0.731201,,,,,,
1483614220.121927,-2.482998,-1.109765,0.046000,1.723650,0.110292,0.888921,-0.272264,0.895594,0.351828,0.105760,0.054982,0.421426,-34.482769,47.476318,-0.723236,,,,,,
1483614220.141916,-2.464377,-1.131726,0.038742,0.069039,1.860471,0.599635,-0.266377,0.905147,0.331288,0.315862,-0.477428,0.067363,-33.125378,48.900040,-0.203308,,,,,,
1483614220.161935,-2.437344,-1.122086,0.033386,-0.487375,1.010742,-0.656721,-0.280871,0.901007,0.330601,0.065417,-0.025595,-0.457127,-33.351131,48.750397,-0.202911,,,,,,
1483614220.181924,-2.428301,-1.112967,0.049757,0.125612,-0.809052,-0.369492,-0.289214,0.897014,0.334247,-0.341096,0.156956,-1.328327,-33.351131,48.750397,-0.202911,,,,,,
1483614220.201944,-2.413472,-1.122049,0.072997,0.993717,0.059071,0.057703,-0.288705,0.900991,0.323828,-0.561576,-0.022146,-0.965719,-33.577633,48.450745,-0.201752,,,,,,
1483614220.221933,-2.372854,-1.143781,0.110201,1.511380,0.423408,0.126877,-0.287934,0.910206,0.297691,-0.593689,-0.132725,-0.416328,-32.824642,49.049591,-0.203613,,,,,,
1483614220.241953,-2.322086,-1.156699,0.157608,0.892741,0.057585,-0.412933,-0.294051,0.915480,0.274646,-0.503053,-0.348677,-0.005283,-33.415554,50.850693,-0.063507,,,,,,
1483614220.261942,-2.276048,-1.171812,0.230224,2.282601,-1.571548,-0.346796,-0.295810,0.921456,0.251824,-0.333112,-0.250649,-0.507348,-32.513927,51.223679,-0.514008,,,,,,
1483614220.281961,-2.149138,-1.211389,0.400571,4.499438,-1.351603,-0.268710,-0.294519,0.936106,0.192262,-0.190771,-0.011179,-0.499910,-32.513927,51.223679,-0.514008,,,,,,
1483614220.301950,-1.885110,-1.255667,0.695967,5.541510,-0.596502,0.046357,-0.294755,0.950756,0.095822,-0.005599,0.019642,-0.433285,-31.756542,52.722198,-0.745361,,,,,,
1483614220.321970,-1.609289,-1.281891,1.013680,4.238384,-2.050100,0.629350,-0.284692,0.958556,0.010964,0.218271,0.153687,-0.515511,-31.144863,55.194229,-2.106781,,,,,,
1483614220.341959,-1.461239,-1.283930,1.224040,2.297786,-2.701122,-0.164306,-0.281252,0.959135,-0.030937,0.215532,0.249391,-0.384071,-31.361706,56.992050,-3.766113,,,,,,
1483614220.361948,-1.395467,-1.267633,1.319925,1.074245,-0.250451,-0.783768,-0.293964,0.954397,-0.052075,0.147754,0.034800,-0.118488,-29.027142,59.159714,-6.323425,,,,,,
1483614220.381967,-1.363333,-1.251651,1.336158,0.026537,1.196790,-0.679056,-0.307027,0.949504,-0.064627,0.146825,-0.168239,-0.018320,-29.027142,59.159714,-6.323425,,,,,,
1483614220.401956,-1.352958,-1.240092,1.319579,-0.019564,1.491440,-0.608438,-0.317036,0.945814,-0.070176,0.141498,-0.210050,0.425614,-29.700039,59.610275,-6.626770,,,,,,
1483614220.421976,-1.279382,-1.226331,1.355386,1.197567,1.990230,-0.421723,-0.323456,0.941256,-0.097022,0.066391,-0.134890,0.273551,-30.750149,59.537643,-6.102966,,,,,,
1483614220.441965,-1.187808,-1.211697,1.432608,1.564838,0.230942,-0.155199,-0.325971,0.936214,-0.131328,-0.036532,-0.033611,-0.014913,-31.349392,59.688553,-6.104614,,,,,,
1483614220.461984,-1.138933,-1.198835,1.503375,1.291047,-1.457344,-0.064241,-0.330074,0.931616,-0.152124,0.001766,-0.039267,0.110636,-31.495464,60.660950,-7.984680,,,,,,
1483614220.481973,-1.128515,-1.187995,1.555365,1.063014,-1.897687,-0.128385,-0.337579,0.927622,-0.159868,0.108240,-0.049631,0.410066,-31.495464,60.660950,-7.984680,,,,,,
1483614220.501993,-1.102320,-1.173011,1.609493,1.393110,-0.742844,-0.264363,-0.345640,0.921921,-0.174911,0.141676,0.039932,0.285309,-30.894314,60.959030,-8.660278,,,,,,
1483614220.521982,-1.051983,-1.153745,1.668597,1.511119,0.065056,-0.325947,-0.351763,0.914287,-0.200852,0.149554,0.118443,0.132493,-30.818981,61.033798,-8.735474,,,,,,
1483614220.542001,-1.003348,-1.132133,1.716219,1.312440,0.305496,-0.464098,-0.358164,0.905320,-0.228285,0.155695,0.095397,0.312879,-30.817303,61.482101,-9.862732,,,,,,
1483614220.561990,-0.968790,-1.112050,1.748032,1.034005,0.297725,-0.433861,-0.364977,0.896608,-0.250771,0.067140,0.026335,0.657265,-31.190777,61.930527,-11.290527,,,,,,
1483614220.582010,-0.948355,-1.096111,1.767418,0.664979,-0.015522,-0.395561,-0.371341,0.889436,-0.266475,0.153796,0.046294,0.379252,-31.190777,61.930527,-11.290527,,,,,,
1483614220.601999,-0.954271,-1.084497,1.773261,0.362983,-0.879126,-0.380695,-0.381313,0.884068,-0.270228,0.305096,0.265468,0.177149,-31.489056,62.305511,-11.592834,,,,,,
1483614220.622018,-0.972251,-1.076221,1.778254,0.314475,-1.181231,-0.185903,-0.392142,0.880170,-0.267442,0.422918,0.383547,0.167115,-31.488934,62.305847,-11.367859,,,,,,
1483614220.642007,-0.993873,-1.074242,1.782356,-0.070664,-1.272949,0.060595,-0.399291,0.879229,-0.259851,0.336028,0.351697,0.568216,-31.487621,62.605301,-11.744385,,,,,,
1483614220.662027,-1.039210,-1.086555,1.758845,-1.332202,-1.141996,0.340025,-0.401295,0.885028,-0.235981,0.106236,0.346249,0.974965,-31.037823,62.530182,-11.368347,,,,,,
1483614220.682016,-1.131074,-1.117136,1.678427,-2.884959,-1.021049,0.649685,-0.396567,0.898849,-0.186561,-0.019952,0.500397,0.483696,-31.037823,62.530182,-11.368347,,,,,,
1483614220.702036,-1.282644,-1.158989,1.538986,-3.752754,-1.376116,1.000690,-0.383764,0.916399,-0.113748,-0.261805,0.455183,0.346368,-30.664379,61.933899,-8.514832,,,,,,
1483614220.722013,-1.464974,-1.194130,1.366034,-3.303876,-0.957216,1.109472,-0.365765,0.929896,-0.038851,-0.247730,0.290639,-0.242521,-29.842388,61.110947,-6.334412,,,,,,
1483614220.742032,-1.606956,-1.218979,1.239849,-1.689362,-1.494097,1.139353,-0.344379,0.938748,0.012458,-0.451138,0.351245,-0.518287,-27.971584,60.061295,-4.226379,,,,,,
1483614220.762021,-1.704123,-1.237435,1.180794,-0.559655,-2.439441,0.922620,-0.324317,0.944948,0.043498,-0.847833,0.431334,-0.517543,-27.226269,59.011856,-3.095032,,,,,,
1483614220.782041,-1.802411,-1.254189,1.133569,-1.102629,-2.330697,1.025215,-0.303030,0.950297,0.071469,-1.348871,0.683797,0.435108,-27.226269,59.011856,-3.095032,,,,,,
1483614220.802030,-1.999856,-1.251683,0.939235,-3.608236,-0.027442,0.740016,-0.285288,0.949514,0.130514,-1.341253,0.759119,0.556650,-25.055782,58.108612,-3.087250,,,,,,
1483614220.822019,-2.195372,-1.225694,0.741800,-3.125745,-0.945387,0.371744,-0.274427,0.941041,0.197818,-0.836489,0.306991,-0.317325,-24.086407,56.908295,-2.329773,,,,,,
1483614220.842038,-2.337829,-1.198532,0.626354,-2.055517,-1.941183,0.192841,-0.261873,0.931506,0.252427,-0.440230,-0.102465,-0.335007,-23.570736,54.958771,-1.494263,,,,,,
1483614220.862027,-2.433239,-1.177158,0.561356,-1.424828,-1.668100,0.143025,-0.249532,0.923520,0.291282,-0.245631,-0.255825,-0.164741,-22.827419,53.607910,-1.336426,,,,,,
1483614220.882047,-2.511791,-1.159011,0.516777,-1.198491,-2.121516,0.114495,-0.235739,0.916408,0.323457,-0.070902,-0.342723,-0.417207,-22.827419,53.607910,-1.336426,,,,,,
1483614220.902036,-2.591698,-1.140743,0.476979,-1.215281,-2.048496,0.199871,-0.217881,0.908943,0.355457,-0.000319,-0.389839,-0.516270,-21.112698,51.579910,-1.623688,,,,,,
1483614220.922055,-2.654873,-1.120136,0.438342,-1.423748,-0.968569,0.210536,-0.203724,0.900160,0.384979,0.061497,-0.323255,-0.483093,-19.765636,51.051987,-2.218994,,,,,,
1483614220.942044,-2.697535,-1.090143,0.398941,-1.949230,-0.075951,0.038259,-0.198633,0.886693,0.417517,0.181207,-0.296224,-0.582007,-19.021374,49.925537,-2.437256,,,,,,
1483614220.962064,-2.720965,-1.051287,0.366717,-2.069369,0.397743,-0.181692,-0.202719,0.868063,0.453180,0.153189,-0.434530,-0.587854,-18.575619,49.099533,-2.657471,,,,,,
1483614220.982053,-2.728536,-1.021288,0.348856,-1.146016,0.307093,-0.187444,-0.209644,0.852782,0.478344,0.077304,-0.608900,-0.534176,-18.575619,49.099533,-2.657471,,,,,,
1483614221.002072,-2.722720,-1.011062,0.349808,-0.074226,0.231631,-0.286834,-0.215958,0.847396,0.485058,0.057023,-0.709838,-0.392758,-19.331081,47.902252,-1.602631,,,,,,
1483614221.022061,-2.698459,-1.017309,0.370824,0.878272,0.434350,-0.411590,-0.225388,0.850696,0.474885,0.069519,-0.786228,-0.326967,-20.011425,46.852936,-1.823425,,,,,,
1483614221.042081,-2.646605,-1.039890,0.412525,1.864613,1.083159,-0.461110,-0.240510,0.862348,0.445544,0.149370,-0.723249,-0.177051,-20.158688,47.378510,-1.601257,,,,,,
1483614221.062070,-2.564215,-1.074929,0.470808,2.328457,1.881050,-0.220792,-0.259703,0.879556,0.398667,0.219908,-0.395135,0.078597,-21.501965,48.656525,-0.934662,,,,,,
1483614221.082089,-2.499159,-1.100124,0.502555,0.488310,1.524712,0.337564,-0.271704,0.891264,0.363078,0.157064,0.138292,0.586827,-21.501965,48.656525,-0.934662,,,,,,
1483614221.102078,-2.515293,-1.084478,0.457696,-1.628468,1.498899,0.211323,-0.273952,0.884059,0.378668,-0.126958,1.081196,1.949183,-21.794430,50.157059,-0.867584,,,,,,
1483614221.122098,-2.499480,-1.081345,0.449529,0.776644,0.412800,0.093970,-0.281563,0.882591,0.376505,-0.269173,0.714669,1.572577,-24.047222,49.561020,-0.492981,,,,,,
1483614221.142087,-2.479563,-1.113898,0.487723,2.084241,-1.000709,0.388459,-0.271194,0.897425,0.347968,-0.083848,-0.017420,0.357568,-24.569897,50.012009,-0.346039,,,,,,
1483614221.162107,-2.463643,-1.134248,0.509842,0.282317,0.325666,0.103311,-0.265188,0.906216,0.329313,0.030218,-0.388928,-0.156294,-24.114574,51.061539,-0.200592,,,,,,
1483614221.182096,-2.458696,-1.125980,0.507685,-0.428338,0.119279,-0.375950,-0.271533,0.902690,0.333798,-0.158536,-0.119426,-0.274274,-24.114574,51.061539,-0.200592,,,,,,
1483614221.202115,-2.466522,-1.126319,0.525269,0.774608,-1.967036,-0.179487,-0.268721,0.902836,0.335674,-0.470385,0.430432,-0.754726,-23.961651,51.661087,-0.353363,,,,,,
1483614221.222104,-2.451706,-1.149116,0.571752,1.906682,-0.646293,0.044069,-0.260495,0.912402,0.315696,-0.539035,0.229230,-0.621635,-23.965099,50.985855,-0.500000,,,,,,
1483614221.242124,-2.395548,-1.188134,0.650943,2.746240,-1.273861,0.123066,-0.253436,0.927674,0.274211,-0.460752,-0.185715,-0.823802,-22.531643,52.708252,-0.806458,,,,,,
1483614221.262113,-2.337892,-1.219944,0.744434,1.922930,-1.566230,-0.283914,-0.247438,0.939080,0.238543,-0.414732,-0.353066,0.106504,-22.302013,53.756104,-2.011322,,,,,,
1483614221.282102,-2.267175,-1.243580,0.866429,2.846663,-2.485747,-0.528244,-0.246575,0.946941,0.206165,-0.284507,-0.297221,-0.328709,-22.302013,53.756104,-2.011322,,,,,,
1483614221.302121,-2.077212,-1.282008,1.109228,4.841568,-1.665803,-0.469424,-0.249047,0.958590,0.138137,-0.181221,-0.026293,-0.406722,-21.171398,54.953278,-2.765625,,,,,,
1483614221.322110,-1.693910,-1.312525,1.522683,6.067195,-0.335830,-0.163595,-0.253477,0.966833,0.031365,-0.094958,0.029505,-0.353097,-20.790874,56.225220,-4.421417,,,,,,
1483614221.342130,-1.292905,-1.307905,1.952059,4.822952,-1.224120,0.391797,-0.249904,0.965643,-0.071291,0.138164,0.123713,-0.461333,-21.225201,59.892853,-9.765381,,,,,,
1483614221.362119,-1.109746,-1.287477,2.181738,2.415425,-2.051532,-0.063811,-0.250356,0.960133,-0.124366,0.254689,0.249141,-0.438775,-20.172832,60.711090,-13.217957,,,,,,
1483614221.382138,-1.061027,-1.264655,2.261611,1.196924,-0.882176,-0.660915,-0.263063,0.953504,-0.147067,0.234361,0.081851,-0.309430,-20.172832,60.711090,-13.217957,,,,,,
1483614221.402127,-1.044856,-1.245447,2.284418,0.563446,-0.056565,-0.583029,-0.276441,0.947539,-0.160468,0.162504,-0.132262,-0.223092,-20.096050,61.233521,-14.870483,,,,,,
1483614221.422147,-1.058645,-1.236416,2.276406,-0.213254,-0.681351,-0.427635,-0.286075,0.944614,-0.160828,0.190159,-0.188175,-0.058960,-20.546169,61.307724,-15.846497,,,,,,
1483614221.442136,-1.124991,-1.232429,2.233133,-0.506187,-1.265535,-0.559375,-0.299504,0.943298,-0.143131,0.124120,-0.045745,0.375293,-21.670666,61.384750,-15.623596,,,,,,
1483614221.462155,-1.101703,-1.219069,2.256324,1.306596,0.443269,-0.272893,-0.307304,0.938779,-0.155750,-0.008690,0.034259,0.937900,-22.194164,61.685516,-15.625854,,,,,,
1483614221.482144,-1.035191,-1.202723,2.336389,1.659686,-1.005134,0.055582,-0.309429,0.933022,-0.183637,0.097607,-0.008676,0.152494,-22.194164,61.685516,-15.625854,,,,,,
1483614221.502164,-0.996905,-1.186862,2.406638,1.440237,-1.291453,-0.052171,-0.314563,0.927198,-0.203356,0.124133,0.043642,0.043856,-22.119778,61.683609,-16.825745,,,,,,
1483614221.522153,-0.962242,-1.170167,2.461618,1.279134,-0.525255,-0.131065,-0.319984,0.920816,-0.222955,0.157462,0.145407,0.029565,-21.593700,62.055466,-18.401733,,,,,,
1483614221.542172,-0.928490,-1.152575,2.501756,1.104822,0.055167,-0.331256,-0.325199,0.913813,-0.243293,0.173237,0.105017,0.099189,-21.743374,62.204453,-19.227722,,,,,,
1483614221.562161,-0.898668,-1.132940,2.528516,1.033066,0.311613,-0.504454,-0.331778,0.905663,-0.264004,0.151496,0.019432,0.333279,-22.345119,62.052429,-21.177917,,,,,,
1483614221.582181,-0.876016,-1.109760,2.551019,1.127962,-0.068545,-0.631393,-0.341752,0.895592,-0.284818,0.014771,0.066673,0.873593,-22.345119,62.052429,-21.177917,,,,,,
1483614221.602170,-0.872580,-1.087151,2.564595,0.848354,-0.613416,-0.678289,-0.356193,0.885306,-0.298932,0.109977,0.193018,0.430952,-22.720226,62.126526,-22.153809,,,,,,
1483614221.622190,-0.884984,-1.068197,2.569066,0.611554,-0.918069,-0.647191,-0.372794,0.876333,-0.305065,0.236457,0.398050,0.327724,-23.620419,62.201187,-23.280579,,,,,,
1483614221.642179,-0.902828,-1.053028,2.570432,0.425870,-0.962288,-0.511679,-0.388570,0.868926,-0.306563,0.318868,0.483507,0.381576,-24.069744,62.425507,-24.182373,,,,,,
1483614221.662198,-0.922491,-1.046278,2.567772,-0.050398,-0.733222,-0.182240,-0.399188,0.865565,-0.302399,0.215824,0.256917,0.613602,-24.744366,62.501526,-24.183777,,,,,,
1483614221.682187,-0.950230,-1.052050,2.546172,-1.038674,-0.421387,-0.052686,-0.403351,0.868442,-0.288301,0.068756,0.182935,0.800416,-24.744366,62.501526,-24.183777,,,,,,
1483614221.702207,-1.026187,-1.074343,2.483222,-2.347896,-1.493616,0.210583,-0.407402,0.879278,-0.246769,-0.056114,0.295848,0.583225,-25.194546,62.427750,-23.809082,,,,,,
1483614221.722195,-1.154613,-1.106769,2.385049,-2.952233,-2.388753,0.459653,-0.409349,0.894257,-0.180933,0.000643,0.396163,0.296259,-25.568707,62.430786,-22.159607,,,,,,
1483614221.742184,-1.330423,-1.136049,2.249230,-3.472578,-2.685188,0.407703,-0.409072,0.906977,-0.100268,-0.121507,0.366964,0.258471,-25.043209,62.357590,-20.433472,,,,,,
1483614221.762203,-1.493717,-1.159825,2.105568,-2.634754,-0.967190,1.033648,-0.398314,0.916733,-0.030763,-0.099046,0.282348,-0.059798,-23.317257,62.062317,-15.554443,,,,,,
1483614221.782192,-1.578569,-1.190105,2.015841,-1.376345,0.459466,1.553739,-0.371551,0.928408,0.002888,-0.080597,0.425031,-0.296864,-23.317257,62.062317,-15.554443,,,,,,
1483614221.802212,-1.617212,-1.216663,1.953695,-1.018425,0.955500,1.216469,-0.346404,0.937947,0.016090,-0.269273,0.454570,-0.432686,-21.819347,61.536652,-14.499573,,,,,,
1483614221.822201,-1.735109,-1.234089,1.846714,-2.449951,-2.447520,0.998367,-0.325932,0.943847,0.054042,-0.457851,0.547974,-0.562541,-21.671413,61.087006,-14.122070,,,,,,
1483614221.842220,-2.011122,-1.229257,1.640770,-3.613804,-4.319357,0.623113,-0.302989,0.942240,0.142762,-0.419316,0.366247,0.027282,-20.999218,60.486557,-13.743103,,,,,,
1483614221.862209,-2.204052,-1.205226,1.478125,-2.486863,-0.500282,0.377252,-0.288168,0.933920,0.211548,-0.428873,0.002665,0.588409,-19.653912,59.436234,-12.610779,,,,,,
1483614221.882229,-2.284733,-1.193134,1.384661,-1.384156,0.267002,0.716864,-0.278696,0.929529,0.241462,-0.292929,-0.113154,-0.126853,-19.653912,59.436234,-12.610779,,,,,,
1483614221.902218,-2.372755,-1.187709,1.302726,-1.354835,-1.049299,0.908278,-0.259893,0.927515,0.268647,-0.232920,-0.155848,-0.393220,-18.908428,58.313385,-10.429016,,,,,,
1483614221.922237,-2.478091,-1.175259,1.211839,-1.798048,-0.816409,0.877252,-0.237301,0.922790,0.303558,-0.169804,-0.203246,-0.464935,-17.636806,57.636490,-10.423706,,,,,,
1483614221.942226,-2.573597,-1.153119,1.116592,-2.111083,-0.184360,0.924495,-0.218211,0.914033,0.341946,-0.035436,-0.314043,-0.605816,-16.665676,56.884689,-10.643555,,,,,,
1483614221.962246,-2.650758,-1.118272,1.020882,-2.855173,0.975953,0.790702,-0.206097,0.899346,0.385617,0.086636,-0.378030,-0.628720,-15.995815,55.760178,-9.661865,,,,,,
1483614221.982235,-2.693153,-1.063247,0.936248,-3.526306,1.931297,0.304665,-0.210726,0.873938,0.437980,0.154619,-0.384238,-0.644416,-15.995815,55.760178,-9.661865,,,,,,
1483614222.002254,-2.702456,-1.005251,0.879134,-2.956545,1.901571,-0.030352,-0.227832,0.844297,0.485032,0.066272,-0.424924,-0.569977,-16.306927,53.289368,-7.175049,,,,,,
