timestamp(unix),attitude_roll(radians),attitude_pitch(radians),attitude_yaw(radians),rotation_rate_x(radians/s),rotation_rate_y(radians/s),rotation_rate_z(radians/s),gravity_x(G),gravity_y(G),gravity_z(G),user_acc_x(G),user_acc_y(G),user_acc_z(G),magnetic_field_x(microteslas),magnetic_field_y(microteslas),magnetic_field_z(microteslas),latitude(degree),longitude(degree),altitude(meter),speed(m/s),course(degree),timestamp(unix)
1484020914.429276,0.025151,0.567395,2.980958,-0.269050,0.253242,0.009319,0.021207,-0.537437,-0.843037,0.025942,0.018288,0.029499,14.810425,12.157043,4.928284,,,,,,
1484020914.449265,0.030507,0.562629,2.981354,-0.239309,0.268359,0.014536,0.025800,-0.533412,-0.845462,-0.003110,0.005961,0.030002,14.587494,12.532959,5.301086,,,,,,
,,,,,,,,,,,,,,,,33.759179,-118.389180,321.515594,-1.000000,-1.000000,1484020914.406276
,,,,,,,,,,,,,,,,33.759179,-118.389180,321.515594,-1.000000,-1.000000,1484020909.381907
1484020914.469254,0.034462,0.557217,2.982585,-0.338386,0.236668,0.052005,0.029243,-0.528827,-0.848226,-0.012367,-0.016706,0.009389,15.113495,12.756897,5.075684,,,,,,
1484020914.489273,0.036650,0.549113,2.984985,-0.447408,0.097653,0.109001,0.031255,-0.521931,-0.852415,-0.008687,-0.021893,-0.009996,15.339691,12.981689,5.224915,,,,,,
1484020914.509262,0.032302,0.539126,2.988314,-0.496980,-0.283919,0.139523,0.027715,-0.513386,-0.857710,0.015085,-0.009563,-0.061022,15.339691,12.981689,5.224915,,,,,,
1484020914.529282,0.022760,0.528826,2.992388,-0.540023,-0.393676,0.177121,0.019650,-0.504520,-0.863176,-0.003613,-0.021893,-0.020628,15.117874,13.582642,5.596619,,,,,,
1484020914.549271,0.011920,0.516960,2.998583,-0.634732,-0.327744,0.296503,0.010362,-0.494240,-0.869264,-0.037584,-0.003425,-0.007140,14.594696,14.032043,4.693542,,,,,,
1484020914.569290,0.006517,0.502799,3.006253,-0.765016,0.114825,0.333984,0.005711,-0.481880,-0.876218,-0.041142,-0.003151,0.037489,14.224060,14.932251,4.463501,,,,,,
1484020914.589279,0.009274,0.486244,3.014520,-0.872956,0.413199,0.386244,0.008199,-0.467308,-0.884057,-0.034521,-0.046043,-0.013023,13.926758,15.457947,4.610413,,,,,,
1484020914.609299,0.013732,0.467941,3.024305,-0.948338,0.489987,0.437271,0.012255,-0.451049,-0.892415,-0.031787,-0.042618,-0.039867,13.926758,15.457947,4.610413,,,,,,
1484020914.629288,0.023744,0.448076,3.033063,-1.022878,0.811108,0.322936,0.021398,-0.433233,-0.901028,-0.012624,0.010045,0.040631,13.932877,16.658203,4.829468,,,,,,
1484020914.649307,0.038634,0.428406,3.038438,-0.974833,0.873262,0.156927,0.035133,-0.415421,-0.908950,0.004600,0.062806,0.022781,14.461258,17.332520,4.826843,,,,,,
1484020914.669296,0.053651,0.409419,3.040933,-0.947691,0.722897,0.009678,0.049193,-0.398076,-0.916032,-0.008299,0.085866,0.009920,14.542145,18.458130,5.346313,,,,,,
1484020914.689316,0.064346,0.389982,3.039537,-1.004436,0.404137,-0.209170,0.059474,-0.380172,-0.923002,0.016316,0.069182,-0.001376,15.220230,19.057434,5.569397,,,,,,
1484020914.709305,0.073296,0.367844,3.032940,-1.115933,0.299387,-0.476880,0.068332,-0.359605,-0.930599,0.048444,0.037110,0.001690,15.220230,19.057434,5.569397,,,,,,
1484020914.729294,0.082999,0.346359,3.024214,-0.966159,0.379240,-0.462579,0.077981,-0.339475,-0.937377,-0.023980,-0.009936,0.036971,15.158630,21.683289,6.081116,,,,,,
1484020914.749313,0.095585,0.330062,3.018704,-0.695910,0.674387,-0.242806,0.090288,-0.324101,-0.941704,-0.015398,-0.049266,0.043617,15.315781,23.108093,6.149231,,,,,,
1484020914.769302,0.111051,0.318635,3.015794,-0.467350,0.626472,-0.223384,0.105245,-0.313271,-0.943814,0.010218,0.003151,0.031628,15.545868,24.083496,6.594727,,,,,,
1484020914.789322,0.117531,0.312381,3.011442,-0.206814,0.153159,-0.224887,0.111586,-0.307326,-0.945039,0.080278,-0.002474,-0.038878,16.299316,24.757568,6.742554,,,,,,
1484020914.809311,0.130141,0.309149,3.008601,-0.121418,0.974407,-0.115020,0.123622,-0.304248,-0.944537,-0.023570,0.012515,0.013477,16.299316,24.757568,6.742554,,,,,,
1484020914.829331,0.150695,0.306658,3.007428,-0.113561,0.902243,-0.069243,0.143121,-0.301874,-0.942543,-0.019922,0.081125,-0.055213,16.450729,24.983154,7.266541,,,,,,
1484020914.849320,0.163459,0.303728,3.005366,-0.128864,0.405371,-0.156551,0.155283,-0.299079,-0.941509,0.029028,0.061912,-0.065159,17.278152,25.432434,7.640503,,,,,,
1484020914.869339,0.166749,0.300282,3.002307,-0.174974,-0.017179,-0.187449,0.158550,-0.295789,-0.942003,0.051472,0.038938,-0.005522,17.954544,25.657166,8.165466,,,,,,
1484020914.889315,0.162865,0.294862,2.999362,-0.263049,-0.382099,-0.161525,0.155148,-0.290607,-0.944180,0.046512,0.009373,-0.015201,17.729721,25.658020,8.540100,,,,,,
1484020914.909335,0.153270,0.290677,2.999324,-0.157312,-0.499244,0.078183,0.146266,-0.286601,-0.946819,-0.015178,-0.023763,0.031810,17.729721,25.658020,8.540100,,,,,,
1484020914.929324,0.139748,0.290328,3.006855,-0.026485,-0.635490,0.534734,0.133464,-0.286266,-0.948809,-0.027034,-0.063465,-0.030210,17.432617,26.258240,8.311646,,,,,,
1484020914.949343,0.120797,0.293809,3.023218,0.163922,-0.731890,0.945063,0.115339,-0.289600,-0.950173,-0.086897,-0.059643,-0.102241,16.833710,26.557861,7.484253,,,,,,
1484020914.969332,0.098115,0.305228,3.044852,0.656656,-0.945391,1.132761,0.093430,-0.300511,-0.949191,-0.142304,-0.029934,-0.115475,15.929611,25.808228,6.811646,,,,,,
1484020914.989352,0.069948,0.326234,3.060728,1.159298,-1.289617,0.471084,0.066204,-0.320478,-0.944940,-0.073010,-0.043047,-0.065940,15.246597,24.233826,6.518555,,,,,,
1484020915.009341,0.043144,0.350008,3.051619,1.212563,-1.686136,-0.671151,0.040515,-0.342905,-0.938496,-0.046542,-0.206732,-0.140896,15.246597,24.233826,6.518555,,,,,,
1484020915.029330,0.012639,0.375047,3.039848,1.305745,-1.609272,-0.275133,0.011760,-0.366316,-0.930416,-0.214534,-0.096239,-0.120060,14.788498,22.732666,5.325317,,,,,,
1484020915.049349,-0.013198,0.399987,3.045718,1.231715,-1.009852,0.539039,-0.012156,-0.389406,-0.920986,-0.158605,-0.033964,-0.157963,12.831238,21.384094,4.279114,,,,,,
1484020915.069338,-0.035855,0.426640,3.054747,1.469792,-0.869363,0.127218,-0.032634,-0.413814,-0.909776,-0.226994,-0.052876,-0.321104,12.072723,19.734375,3.761292,,,,,,
1484020915.089358,-0.049573,0.462863,3.047252,1.979931,-1.002101,-0.704700,-0.044339,-0.446512,-0.893679,-0.200473,-0.084937,-0.252363,11.014053,18.010925,3.693298,,,,,,
1484020915.109347,-0.068827,0.504429,3.029457,2.005953,-1.532407,-0.973833,-0.060207,-0.483307,-0.873378,-0.121174,-0.093093,-0.126164,11.014053,18.010925,3.693298,,,,,,
1484020915.129366,-0.087853,0.543279,3.009119,1.811742,-1.337619,-1.067635,-0.075107,-0.516946,-0.852717,-0.115002,-0.054084,-0.053854,11.309006,17.034912,3.323608,,,,,,
1484020915.149355,-0.098191,0.578865,2.988092,1.602591,-0.891462,-1.061358,-0.082062,-0.547074,-0.833052,-0.082428,0.007676,0.007734,10.325363,15.311340,3.255737,,,,,,
1484020915.169375,-0.094304,0.608713,2.964648,1.273603,-0.219103,-1.127755,-0.077251,-0.571812,-0.816739,0.039638,0.053974,0.093046,9.490204,13.287476,3.189575,,,,,,
1484020915.189364,-0.080658,0.632334,2.941112,0.996044,0.056497,-1.013817,-0.064992,-0.591029,-0.804028,0.114065,0.113063,0.130688,9.861832,12.611938,3.193542,,,,,,
1484020915.209383,-0.068182,0.650356,2.918799,0.745604,-0.148522,-0.945683,-0.054222,-0.605470,-0.794019,0.168694,0.153978,0.143933,9.861832,12.611938,3.193542,,,,,,
1484020915.229373,-0.061726,0.664882,2.898180,0.657180,-0.371314,-0.794722,-0.048547,-0.616966,-0.785491,0.214868,0.162453,0.151213,10.458939,12.011353,3.422485,,,,,,
1484020915.249393,-0.061399,0.678470,2.881358,0.634033,-0.620069,-0.650696,-0.047771,-0.627603,-0.777067,0.278378,0.180856,0.133283,10.307571,11.711975,3.648743,,,,,,
1484020915.269382,-0.069584,0.691068,2.869617,0.566752,-0.862955,-0.387416,-0.053576,-0.637360,-0.768701,0.292910,0.166245,0.166101,10.006149,11.412537,3.799805,,,,,,
1484020915.289371,-0.086463,0.701261,2.865696,0.471342,-1.076422,-0.063811,-0.065978,-0.645182,-0.761175,0.263930,0.134119,0.146902,10.230606,11.336853,3.500427,,,,,,
1484020915.309390,-0.114951,0.710942,2.870960,0.527550,-1.310857,0.260506,-0.086912,-0.652548,-0.752747,0.180128,0.116049,0.103027,10.230606,11.336853,3.500427,,,,,,
1484020915.329379,-0.149383,0.720766,2.883272,0.546078,-1.293887,0.442720,-0.111814,-0.659961,-0.742933,0.131102,0.076968,0.085356,9.177948,10.813232,3.426514,,,,,,
1484020915.349398,-0.180276,0.728372,2.896425,0.383910,-0.979970,0.399691,-0.133805,-0.665655,-0.734166,0.105179,0.016684,0.077000,8.124557,10.139709,3.353333,,,,,,
1484020915.369387,-0.204032,0.732373,2.905612,0.210515,-0.968567,0.214523,-0.150665,-0.668636,-0.728166,0.089005,0.042446,-0.044508,6.246216,9.541504,2.678528,,,,,,
1484020915.389407,-0.244425,0.743288,2.909567,0.973089,-2.589043,-0.067892,-0.178170,-0.676713,-0.714364,0.078592,0.068558,-0.394309,5.419403,9.167908,2.754089,,,,,,
1484020915.409396,-0.325074,0.782426,2.920916,2.621996,-4.248597,-0.230994,-0.226505,-0.705002,-0.672062,0.057911,0.104004,-0.433605,5.419403,9.167908,2.754089,,,,,,
1484020915.429415,-0.442715,0.845316,2.946716,3.487033,-5.320458,-0.450004,-0.284237,-0.748181,-0.599529,-0.007404,-0.018375,-0.261586,3.541412,8.570740,2.754272,,,,,,
1484020915.449404,-0.583634,0.914264,2.982442,3.565629,-5.820409,-0.895377,-0.336353,-0.792114,-0.509336,-0.098218,-0.088639,-0.075915,0.907013,6.699585,2.684692,,,,,,
1484020915.469424,-0.728294,0.982889,3.020736,3.298679,-5.574902,-1.399632,-0.369154,-0.832103,-0.413919,-0.223360,-0.095997,0.059992,-2.403976,4.381348,3.891296,,,,,,
1484020915.489413,-0.868624,1.050402,3.057059,2.870029,-5.516543,-1.947728,-0.379600,-0.867623,-0.321145,-0.163491,-0.065970,0.137246,-6.324768,-0.033936,6.457520,,,,,,
1484020915.509432,-1.002335,1.111878,3.091670,2.202190,-4.637038,-1.925052,-0.373311,-0.896532,-0.238472,-0.122843,-0.080381,0.274803,-6.324768,-0.033936,6.457520,,,,,,
1484020915.529421,-1.061015,1.152887,3.102318,0.499997,-0.895343,-1.522030,-0.354248,-0.913939,-0.198050,-0.256852,-0.045854,0.489828,-7.830627,-1.379089,8.186951,,,,,,
1484020915.549441,-0.959802,1.168396,3.024363,-1.682781,2.638680,-1.484535,-0.320774,-0.920123,-0.224670,-0.121334,0.083469,0.485641,-8.960678,-2.500671,9.315857,,,,,,
1484020915.569430,-0.766813,1.160059,2.890043,-2.477421,3.732440,-1.317877,-0.277042,-0.916827,-0.287536,0.150440,0.190493,0.231643,-7.686768,-2.653625,8.643555,,,,,,
1484020915.589419,-0.592968,1.135662,2.779372,-2.280710,3.458703,-0.798516,-0.235563,-0.906813,-0.349571,0.369886,0.320952,0.072731,-2.355133,-1.016174,5.568359,,,,,,
1484020915.609438,-0.496622,1.108153,2.716960,-1.510970,0.783261,-0.186968,-0.212650,-0.894876,-0.392399,0.693608,0.417520,-0.324001,-2.355133,-1.016174,5.568359,,,,,,
1484020915.629427,-0.549026,1.099212,2.735759,0.810618,-3.442953,1.058633,-0.237079,-0.890850,-0.387531,0.972049,0.543163,-0.603634,-0.473785,0.329834,4.814453,,,,,,
1484020915.649447,-0.799851,1.121887,2.872685,3.987082,-8.035051,1.973429,-0.311275,-0.900921,-0.302405,0.906048,0.507092,-0.656595,-1.896210,0.782898,5.410034,,,,,,
1484020915.669436,-1.233833,1.140808,3.135787,5.790382,-10.634067,2.058958,-0.393417,-0.908971,-0.137823,0.409805,0.444509,-0.235071,-5.726089,-0.260315,6.084595,,,,,,
1484020915.689456,-1.719165,1.125686,-2.853716,6.140566,-10.885614,0.790857,-0.425827,-0.902563,0.063647,-0.255066,0.123663,0.399457,-17.583115,-2.775940,17.179321,,,,,,
1484020915.709445,-2.115346,1.090758,-2.624176,4.785868,-8.430065,-0.564993,-0.395017,-0.886977,0.239234,-0.657504,-0.234223,0.934914,-17.583115,-2.775940,17.179321,,,,,,
1484020915.729465,-2.345470,1.064304,-2.490084,2.298059,-3.699746,-0.967689,-0.346686,-0.874451,0.339328,-0.695047,-0.606796,1.371289,-20.285782,-4.035950,24.456604,,,,,,
1484020915.749453,-2.368717,1.072209,-2.466962,-1.289185,1.931994,-0.471431,-0.333868,-0.878259,0.342336,-0.597651,-0.706565,1.587718,-19.840927,-5.529663,29.114685,,,,,,
1484020915.769473,-2.192987,1.123822,-2.566455,-4.559380,5.482219,-0.669781,-0.351239,-0.901759,0.251916,-0.734760,-0.531178,1.373877,-20.068954,-6.129517,29.042297,,,,,,
1484020915.789462,-1.844609,1.200950,-2.801484,-6.474756,7.272491,-1.956542,-0.348006,-0.932383,0.097744,-0.780198,-0.226644,0.935475,-18.867142,-5.387024,25.215454,,,,,,
1484020915.809481,-1.298439,1.254655,3.073286,-6.877322,8.458897,-2.926977,-0.299441,-0.950442,-0.083633,-0.430798,0.054263,0.535751,-18.867142,-5.387024,25.215454,,,,,,
1484020915.829470,-0.714846,1.239710,2.640151,-5.595881,8.597591,-3.031809,-0.213084,-0.945690,-0.245491,-0.018086,0.340313,0.204476,-12.036224,-2.867188,11.863098,,,,,,
1484020915.849459,-0.291312,1.190571,2.360792,-3.881401,7.714564,-3.123971,-0.106592,-0.928581,-0.355493,0.176462,0.577019,0.170084,-5.652908,-0.709229,6.911865,,,,,,
1484020915.869479,0.012956,1.138790,2.178359,-2.594976,6.279250,-3.246381,0.005424,-0.908128,-0.418658,0.318215,0.675721,0.179614,-0.014816,2.129028,4.731140,,,,,,
1484020915.889459,0.231312,1.093140,2.047385,-1.566640,4.289062,-3.036762,0.105388,-0.888075,-0.447455,0.600819,0.716261,0.238792,5.546249,4.370239,4.428284,,,,,,
1484020915.909477,0.371635,1.052381,1.956691,-1.235063,2.306185,-2.416464,0.179937,-0.868605,-0.461679,0.961588,0.750960,0.307717,5.546249,4.370239,4.428284,,,,,,
1484020915.929466,0.437032,1.016385,1.912492,-1.158601,0.891774,-1.344743,0.222818,-0.850210,-0.476964,1.393378,0.950751,0.126439,12.087204,7.363464,6.448181,,,,,,
1484020915.949486,0.441766,0.998464,1.907896,-0.439965,-0.531178,0.090505,0.231552,-0.840640,-0.489600,1.890824,1.142886,-0.110696,13.520844,9.086487,6.516663,,,,,,
1484020915.969476,0.355795,1.014057,1.944471,0.932373,-4.285371,1.932946,0.184068,-0.848983,-0.495325,2.185241,1.356917,-0.487814,13.599564,9.836182,6.438110,,,,,,
1484020915.989495,0.136779,1.075349,2.053265,3.189485,-7.163975,4.316657,0.064825,-0.879756,-0.470985,1.939981,1.574657,-0.643502,10.970673,9.163513,5.387451,,,,,,
1484020916.009484,-0.259386,1.157806,2.318675,5.201578,-8.251148,6.138322,-0.102941,-0.915925,-0.387924,1.241750,1.746934,-0.614853,10.970673,9.163513,5.387451,,,,,,
1484020916.029504,-0.853394,1.202794,2.767456,7.051414,-9.240873,5.633060,-0.271079,-0.933048,-0.236512,0.032996,1.733326,-0.553573,5.330765,6.245972,4.718567,,,,,,
1484020916.049493,-1.496796,1.189177,-3.017050,8.615091,-8.590880,3.006160,-0.371404,-0.928063,-0.027534,-1.014368,1.351891,-0.424736,-9.550629,-0.475037,9.154846,,,,,,
1484020916.069512,-2.015037,1.123632,-2.597442,8.842346,-5.148449,0.996449,-0.390440,-0.901677,0.185838,-1.306078,0.952885,-0.030427,-15.639130,-3.831116,15.687561,,,,,,
1484020916.089500,-2.308323,1.017775,-2.316884,8.398480,-0.777940,0.338799,-0.388763,-0.850942,0.353216,-1.252808,0.690907,0.581537,-18.051590,-7.115479,23.650330,,,,,,
1484020916.109520,-2.469254,0.897216,-2.117828,8.241371,0.133269,-0.357433,-0.388507,-0.781593,0.488032,-0.764829,0.408073,1.539358,-18.051590,-7.115479,23.650330,,,,,,
1484020916.129509,-2.588636,0.784274,-1.972936,6.594853,-0.916823,-0.782308,-0.371794,-0.706312,0.602406,-0.462542,0.226621,1.999477,-18.357956,-9.055054,30.334534,,,,,,
1484020916.149498,-2.627949,0.719954,-1.910588,2.052208,1.464132,0.061550,-0.369418,-0.659350,0.654819,-0.031843,0.006548,2.964489,-16.252197,-9.115173,42.413025,,,,,,
1484020916.169518,-2.507033,0.728945,-1.950213,-2.981828,6.596054,1.547965,-0.442173,-0.666083,0.600679,0.091771,-0.109277,3.396208,-16.775436,-8.961426,44.361450,,,,,,
1484020916.189507,-2.258449,0.773618,-2.088797,-6.151075,7.794880,2.233327,-0.552807,-0.698728,0.454074,0.134228,-0.062823,3.019116,-18.947281,-7.988220,40.978394,,,,,,
1484020916.209527,-1.974393,0.819718,-2.291596,-7.870896,6.510114,1.215133,-0.627597,-0.730953,0.268009,-0.527020,0.064755,2.449231,-18.947281,-7.988220,40.978394,,,,,,
1484020916.229516,-1.653871,0.858626,-2.547601,-9.254841,6.826619,-0.464378,-0.651224,-0.756945,0.054225,-1.140020,0.263125,1.883519,-21.268448,-6.495667,33.692383,,,,,,
1484020916.249536,-1.263218,0.869132,-2.850608,-9.883722,8.696642,-2.329807,-0.615197,-0.763769,-0.195423,-1.339821,0.555609,1.344349,-19.971756,-0.448242,16.639038,,,,,,
1484020916.269525,-0.846283,0.836131,3.124047,-9.359739,9.333740,-4.318491,-0.501965,-0.742055,-0.444282,-1.171757,0.827962,0.852195,-15.827164,4.258789,8.746704,,,,,,
1484020916.289544,-0.462711,0.764216,2.847410,-8.284303,9.189957,-6.175772,-0.322250,-0.691971,-0.646011,-1.010239,0.973237,0.627976,-8.823425,10.614136,2.650513,,,,,,
1484020916.309533,-0.125054,0.661084,2.611146,-7.026607,9.140672,-7.505823,-0.098451,-0.613973,-0.783163,-0.963576,1.191060,0.546560,-8.823425,10.614136,2.650513,,,,,,
1484020916.329553,0.149808,0.537108,2.420534,-5.454574,7.615909,-8.327953,0.128233,-0.511653,-0.849569,-0.676573,1.381038,0.359258,-0.689697,17.573669,0.527893,,,,,,
1484020916.349541,0.346758,0.408169,2.250308,-3.669716,5.065556,-9.323579,0.311932,-0.396929,-0.863218,-0.543377,1.540789,0.041929,7.750259,25.437988,1.776245,,,,,,
1484020916.369560,0.475784,0.282190,2.082263,-1.889967,2.782348,-9.979325,0.439920,-0.278459,-0.853775,-0.441796,1.665682,-0.097290,14.385696,46.592041,11.130432,,,,,,
1484020916.389549,0.535534,0.176886,1.913775,0.228852,-0.051986,-9.603922,0.502338,-0.175965,-0.846577,-0.104801,1.837296,-0.373516,13.770279,58.148376,14.746765,,,,,,
1484020916.409570,0.525627,0.112323,1.737474,2.491505,-2.414035,-8.902668,0.498594,-0.112087,-0.859558,0.289645,1.958522,-0.799865,13.770279,58.148376,14.746765,,,,,,
1484020916.429559,0.482783,0.088276,1.553957,3.859958,-3.438567,-8.508642,0.462438,-0.088161,-0.882258,0.300792,2.109936,-0.886892,9.544052,67.682983,16.942688,,,,,,
1484020916.449548,0.415495,0.101767,1.357768,5.621480,-4.889061,-8.675263,0.401555,-0.101592,-0.910183,0.319835,2.241698,-1.106815,3.648773,73.690857,16.303772,,,,,,
1484020916.469567,0.322724,0.169393,1.135110,8.095729,-6.873150,-9.380988,0.312612,-0.168584,-0.934801,0.608928,2.465138,-1.372526,-9.854523,73.479370,11.784607,,,,,,
1484020916.489556,0.222038,0.292579,0.896045,9.522310,-8.127939,-9.667425,0.210859,-0.288422,-0.933997,0.997316,2.600998,-1.356301,-16.641953,66.285156,8.885376,,,,,,
1484020916.509576,0.143423,0.451240,0.659712,9.954309,-8.167066,-9.215568,0.128625,-0.436082,-0.890667,1.162741,2.587464,-1.335956,-16.641953,66.285156,8.885376,,,,,,
1484020916.529565,0.122115,0.630085,0.437063,10.270137,-5.718763,-7.751805,0.098422,-0.589214,-0.801960,1.206480,2.468532,-1.449840,-22.780380,53.766968,7.213806,,,,,,
1484020916.549583,0.190010,0.825855,0.223746,11.345541,-2.544729,-5.604352,0.128039,-0.735127,-0.665728,1.062207,2.414861,-1.535352,-26.153854,38.998047,7.957581,,,,,,
1484020916.569572,0.363809,1.037643,-0.022636,12.620364,-0.653420,-3.512895,0.180855,-0.861209,-0.474985,0.874001,2.441287,-1.265478,-21.660049,7.273682,12.847961,,,,,,
1484020916.589592,0.750338,1.233839,-0.445985,12.829757,0.401027,-1.927474,0.225443,-0.943765,-0.241833,0.501943,2.386728,-0.561192,-17.889435,-4.198120,18.760986,,,,,,
1484020916.609581,1.538128,1.320083,-1.234476,11.014843,2.353000,-0.477089,0.247962,-0.968736,-0.008103,0.053567,2.188340,0.131822,-17.889435,-4.198120,18.760986,,,,,,
1484020916.629601,2.255344,1.264154,-1.899404,8.504079,4.585716,0.771325,0.233852,-0.953352,0.190873,-0.222744,1.929778,0.288604,-15.365967,-10.339417,27.120483,,,,,,
1484020916.649590,2.667814,1.161584,-2.221531,7.058029,5.804067,1.236310,0.181537,-0.917435,0.354060,-0.475284,1.730011,0.332479,-14.694580,-11.828857,34.778870,,,,,,
1484020916.669610,2.906181,1.039590,-2.366082,6.989221,5.172221,0.824265,0.118155,-0.862197,0.492602,-0.590979,1.603331,0.289793,-16.036392,-10.768188,40.546631,,,,,,
1484020916.689599,3.054387,0.894452,-2.433626,7.723606,4.284919,0.683491,0.054517,-0.779866,0.623568,-0.582151,1.385838,0.485777,-20.051498,-4.895630,51.611206,,,,,,
1484020916.709619,-3.115988,0.748601,-2.468292,6.955738,4.775572,1.218740,-0.018757,-0.680615,0.732401,-0.454266,1.036145,1.128530,-20.051498,-4.895630,51.611206,,,,,,
1484020916.729608,-2.971455,0.642098,-2.503849,3.784147,7.062253,2.165901,-0.135597,-0.598877,0.789278,-0.357231,0.564087,1.903715,-22.798706,0.067444,57.582275,,,,,,
1484020916.749597,-2.779101,0.609474,-2.554861,-0.572591,8.618417,2.430349,-0.290758,-0.572436,0.766666,-0.335890,0.176150,2.451031,-27.040573,6.230774,62.195068,,,,,,
1484020916.769616,-2.559323,0.629137,-2.639653,-3.325763,8.342416,2.777040,-0.444631,-0.588448,0.675302,-0.183650,-0.087471,2.372168,-32.491104,11.187988,61.562073,,,,,,
1484020916.789604,-2.330683,0.655383,-2.764835,-4.713116,7.314109,3.021370,-0.574722,-0.609463,0.546122,-0.207962,-0.326389,2.168569,-41.316101,17.407959,49.367798,,,,,,
1484020916.809624,-2.102828,0.678285,-2.912721,-5.697585,6.643925,2.144312,-0.671023,-0.627459,0.394997,-0.798016,-0.532804,1.942573,-41.316101,17.407959,49.367798,,,,,,
1484020916.829613,-1.880273,0.713309,-3.066997,-6.313212,5.843487,-0.115463,-0.720276,-0.654339,0.230308,-1.472213,-0.577472,1.509636,-44.152161,20.926270,42.070984,,,,,,
1484020916.849633,-1.673916,0.773837,3.052885,-6.583916,4.107947,-2.712745,-0.711435,-0.698884,0.073624,-1.713064,-0.408248,0.996459,-44.740524,23.991028,34.704712,,,,,,
1484020916.869622,-1.482147,0.854999,2.868152,-6.105395,2.184299,-4.687904,-0.653642,-0.754570,-0.058097,-1.664900,0.000237,0.368049,-42.563202,25.177002,27.502075,,,,,,
1484020916.889641,-1.303768,0.945003,2.667199,-4.832462,0.355953,-6.047622,-0.564982,-0.810498,-0.154557,-1.433538,0.414258,-0.224212,-39.719513,24.489075,21.734741,,,,,,
1484020916.909630,-1.132096,1.047823,2.443468,-3.426080,-1.473315,-7.443211,-0.452162,-0.866338,-0.212152,-1.284487,0.736516,-0.576636,-39.719513,24.489075,21.734741,,,,,,
1484020916.929649,-0.913314,1.156868,2.146881,-2.652776,-2.777636,-8.516937,-0.318362,-0.915548,-0.245800,-1.075864,1.053564,-0.637486,-32.616943,20.569885,16.065002,,,,,,
1484020916.949638,-0.549599,1.243821,1.685941,-2.250676,-3.621579,-9.290661,-0.167767,-0.947018,-0.273881,-0.884998,1.340542,-0.631285,-28.812378,16.661560,14.290283,,,,,,
1484020916.969658,-0.029315,1.256491,1.062674,-2.223331,-3.612606,-9.538150,-0.009062,-0.951011,-0.309023,-0.673846,1.574806,-0.499357,-24.857208,12.828674,12.965393,,,,,,
1484020916.989647,0.389872,1.172358,0.546089,-2.587200,-3.146539,-9.563511,0.147459,-0.921668,-0.358864,-0.461043,1.806846,-0.478935,-21.050354,9.296387,11.938782,,,,,,
1484020917.009666,0.611845,1.028285,0.232025,-2.939973,-2.942379,-9.804014,0.296545,-0.856415,-0.422629,-0.218695,2.029876,-0.678751,-21.050354,9.296387,11.938782,,,,,,
1484020917.029655,0.720434,0.868263,0.019364,-1.835960,-3.434989,-9.671657,0.426274,-0.763208,-0.485597,0.097041,2.160302,-1.095702,-13.269485,5.829346,8.367737,,,,,,
1484020917.049644,0.780220,0.745370,-0.158143,0.622526,-3.198509,-8.051873,0.516910,-0.678244,-0.522292,0.626186,2.039099,-1.264985,-9.974396,4.997253,6.876892,,,,,,
1484020917.069664,0.834915,0.673093,-0.311582,2.287962,-1.585351,-5.708156,0.579573,-0.623408,-0.524841,1.110887,1.824351,-1.163651,-7.131683,3.641479,5.912903,,,,,,
1484020917.089653,0.895278,0.654917,-0.435405,3.580886,-0.487747,-2.737904,0.618921,-0.609093,-0.495926,1.403266,1.664681,-1.001922,-3.840485,1.837097,6.301880,,,,,,
1484020917.109673,0.948886,0.690386,-0.529149,4.177591,-0.056630,0.328796,0.626644,-0.636835,-0.449176,1.390873,1.550928,-0.722699,-3.840485,1.837097,6.301880,,,,,,
1484020917.129662,0.999246,0.772383,-0.592567,4.272148,0.766389,3.066746,0.602412,-0.697844,-0.387446,1.105322,1.486952,-0.424414,-0.950714,-5.438843,8.592529,,,,,,
1484020917.149681,1.053077,0.892320,-0.623944,3.815096,2.046725,5.447204,0.545360,-0.778530,-0.310603,0.742101,1.460613,-0.162374,-1.567108,-8.959229,11.009277,,,,,,
1484020917.169670,1.099932,1.044037,-0.614687,3.143662,3.106675,7.647586,0.448026,-0.864441,-0.228069,0.536349,1.500549,-0.079976,-3.826721,-11.127075,13.491699,,,,,,
1484020917.189690,1.089739,1.230270,-0.539396,2.683195,2.595194,9.847035,0.296078,-0.942579,-0.154540,0.566807,1.597883,-0.121507,-7.874191,-10.965881,16.934814,,,,,,
1484020917.209679,0.728496,1.441028,-0.130114,2.622946,1.719082,11.797557,0.086151,-0.991592,-0.096559,0.362839,1.862899,-0.156585,-7.874191,-10.965881,16.934814,,,,,,
1484020917.229698,-1.316082,1.404908,1.966289,3.088105,2.595834,12.828242,-0.159801,-0.986272,-0.041607,-0.455754,2.131810,-0.088001,-14.233932,-8.251282,20.286743,,,,,,
1484020917.249687,-1.567278,1.172574,2.312982,3.397507,5.366791,11.029266,-0.387778,-0.921752,-0.001364,-1.640405,1.630111,0.014655,-32.965378,9.565247,29.244568,,,,,,
1484020917.269707,-1.536077,1.000351,2.430949,2.088111,7.242167,7.367812,-0.539681,-0.841661,-0.018745,-1.808433,0.851274,-0.101311,-40.629517,21.505249,31.573364,,,,,,
1484020917.289696,-1.459389,0.877607,2.498413,1.354570,5.878286,5.963119,-0.635033,-0.769212,-0.071041,-1.239327,0.484178,-0.276889,-43.368530,28.856995,30.032471,,,,,,
1484020917.309715,-1.416350,0.763508,2.560157,1.388083,3.761735,5.997713,-0.713816,-0.691460,-0.111131,-1.179174,0.280083,-0.419325,-43.368530,28.856995,30.032471,,,,,,
1484020917.329704,-1.380381,0.654120,2.624670,1.432015,4.330445,5.611650,-0.779240,-0.608461,-0.150199,-1.652156,0.042116,-0.304543,-46.043045,34.256470,27.001465,,,,,,
1484020917.349693,-1.303121,0.563154,2.678776,1.039047,6.023476,4.473461,-0.815463,-0.533855,-0.223646,-1.919186,-0.167957,-0.214189,-49.438110,45.655396,22.889404,,,,,,
1484020917.369713,-1.198129,0.505791,2.726758,1.158672,6.574003,2.724751,-0.814745,-0.484500,-0.318513,-1.947767,-0.349805,-0.154678,-48.000076,48.721313,18.301208,,,,,,
1484020917.389702,-1.094928,0.483410,2.771514,1.444621,5.941902,1.396456,-0.787042,-0.464801,-0.405618,-1.721931,-0.476514,0.071679,-44.100616,49.083435,13.580261,,,,,,
1484020917.409721,-1.004023,0.482733,2.808634,1.380772,5.119476,0.508055,-0.747235,-0.464202,-0.475559,-1.695835,-0.461167,0.227863,-44.100616,49.083435,13.580261,,,,,,
1484020917.429710,-0.928355,0.502050,2.832996,1.514559,3.924287,-0.638279,-0.701836,-0.481223,-0.525215,-1.747383,-0.533883,0.228401,-39.088058,47.044189,9.097961,,,,,,
1484020917.449730,-0.862772,0.545947,2.837560,1.502296,3.185785,-2.214531,-0.649222,-0.519228,-0.555799,-1.708184,-0.502394,0.274885,-29.527267,39.746704,3.673767,,,,,,
1484020917.469719,-0.787550,0.609473,2.807964,1.091348,2.815270,-3.705082,-0.581039,-0.572435,-0.578543,-1.445817,-0.291334,0.244864,-25.652405,34.863647,2.203979,,,,,,
1484020917.489738,-0.703041,0.681252,2.746114,0.964013,2.043186,-4.532471,-0.502223,-0.629766,-0.592594,-1.109090,-0.059443,0.099109,-21.773010,30.880737,0.804749,,,,,,
1484020917.509727,-0.616825,0.758232,2.661626,1.205037,1.257073,-5.088771,-0.419984,-0.687639,-0.592255,-0.869170,0.142427,0.041321,-21.773010,30.880737,0.804749,,,,,,
1484020917.529747,-0.515031,0.838071,2.548890,1.260043,1.010853,-5.756231,-0.329474,-0.743354,-0.582127,-0.771906,0.335731,0.051915,-17.742661,26.974426,0.605347,,,,,,
1484020917.549736,-0.371322,0.912701,2.390158,1.112180,1.086651,-6.430679,-0.221922,-0.791159,-0.569928,-0.516253,0.487021,0.111677,-14.086273,23.293335,0.179199,,,,,,
1484020917.569756,-0.187813,0.966912,2.184594,0.832183,0.666151,-6.650949,-0.106023,-0.823136,-0.557859,-0.301433,0.644196,0.043134,-7.586197,18.259277,0.664124,,,,,,
1484020917.589745,0.014352,0.995265,1.948384,0.915668,0.060753,-6.691736,0.007811,-0.838903,-0.544225,-0.159590,0.741994,0.003911,-4.292221,17.054382,0.675110,,,,,,
1484020917.609764,0.216404,1.002075,1.698228,1.264061,-0.752551,-6.705540,0.115638,-0.842590,-0.525994,-0.056388,0.844742,-0.009300,-4.292221,17.054382,0.675110,,,,,,
1484020917.629753,0.403253,0.988017,1.444980,1.535732,-1.649155,-6.897645,0.215963,-0.834937,-0.506203,-0.030034,0.939505,0.007774,-1.143661,16.749878,0.831299,,,,,,
1484020917.649742,0.567009,0.950492,1.194148,1.747667,-2.456899,-7.305485,0.312214,-0.813701,-0.490319,0.074840,0.987346,0.063088,0.960983,17.499451,2.630798,,,,,,
1484020917.669762,0.692612,0.893372,0.961617,1.871931,-3.385721,-7.350394,0.400235,-0.779190,-0.482364,0.191424,1.096100,0.055087,1.787521,17.798279,2.705505,,,,,,
1484020917.689751,0.762560,0.823742,0.767046,1.473594,-4.107318,-6.857723,0.469368,-0.733694,-0.491312,0.367806,1.032980,-0.022024,1.792313,18.773071,2.550659,,,,,,
1484020917.709770,0.786944,0.752934,0.614907,1.102317,-4.186839,-5.928729,0.516763,-0.683782,-0.515168,0.547736,0.922872,-0.094741,1.792313,18.773071,2.550659,,,,,,
1484020917.729759,0.783086,0.693515,0.505443,0.617614,-3.567236,-4.452580,0.542509,-0.639244,-0.545023,0.625566,0.923836,-0.171789,0.674896,20.274963,2.691406,,,,,,
1484020917.749779,0.761361,0.648915,0.431158,0.421548,-3.366310,-3.233496,0.549677,-0.604322,-0.576758,0.706259,0.888318,-0.428476,-0.369553,21.401306,2.534241,,,,,,
1484020917.769768,0.732558,0.627499,0.375144,1.023016,-2.913388,-1.805356,0.541371,-0.587122,-0.601835,0.718089,0.868402,-0.534808,-2.236740,22.904968,3.123901,,,,,,
1484020917.789787,0.704391,0.639644,0.335292,1.840250,-2.412005,-0.239651,0.519550,-0.596910,-0.611364,0.620617,0.866334,-0.602671,-5.013977,22.532959,2.371582,,,,,,
1484020917.809776,0.681500,0.686569,0.308918,2.860646,-1.642281,1.218548,0.487226,-0.633887,-0.600664,0.508303,0.795783,-0.534895,-5.013977,22.532959,2.371582,,,,,,
1484020917.829796,0.669659,0.761269,0.296264,3.361686,-0.623095,2.386101,0.449376,-0.689840,-0.567610,0.361995,0.756628,-0.367952,-6.223984,20.510132,2.604919,,,,,,
1484020917.849785,0.661639,0.852982,0.302236,3.600465,0.019246,3.359521,0.404122,-0.753245,-0.518948,0.263633,0.720927,-0.302067,-7.514877,17.213806,3.744507,,,,,,
1484020917.869804,0.644139,0.962807,0.327702,4.120153,0.148273,4.350095,0.343022,-0.820798,-0.456756,0.243877,0.712949,-0.261643,-8.582687,13.616028,4.135864,,,,,,
1484020917.889791,0.605262,1.092015,0.376352,4.736836,0.134942,5.044255,0.262127,-0.887557,-0.378856,0.176518,0.720183,-0.157139,-11.092834,6.348267,6.493408,,,,,,
1484020917.909811,0.522596,1.234234,0.469636,5.230312,0.244857,5.618035,0.164835,-0.943896,-0.286165,0.083090,0.787340,-0.093977,-11.092834,6.348267,6.493408,,,,,,
1484020917.929800,0.266365,1.384525,0.744276,5.681091,0.681096,6.472139,0.048749,-0.982702,-0.178665,-0.090970,0.854543,-0.015778,-13.503113,4.030823,9.126343,,,,,,
1484020917.949789,-0.863496,1.463477,1.905107,5.320342,1.347588,6.695841,-0.081419,-0.994247,-0.069601,-0.396868,0.873428,0.069006,-17.113174,1.641907,12.882935,,,,,,
1484020917.969808,-1.657146,1.370111,2.739393,4.259137,1.694092,5.452025,-0.198598,-0.979930,0.017192,-0.544169,0.700115,0.029241,-20.485306,1.803101,17.002014,,,,,,
1484020917.989797,-1.876407,1.261336,2.992719,4.334240,1.059913,4.365270,-0.290433,-0.952498,0.091630,-0.498584,0.614501,-0.054307,-27.668686,4.523010,23.052673,,,,,,
1484020918.009817,-2.000999,1.150692,-3.135109,4.626317,1.193296,4.104087,-0.370693,-0.913046,0.170098,-0.462422,0.503104,0.028983,-27.668686,4.523010,23.052673,,,,,,
1484020918.029806,-2.038333,1.041000,-3.049222,3.765101,2.576485,4.068326,-0.451123,-0.862910,0.227759,-0.469638,0.384623,0.221643,-29.533798,6.106689,27.016968,,,,,,
1484020918.049826,-1.994082,0.945973,-3.016079,2.398960,4.141343,3.719398,-0.533328,-0.811066,0.240275,-0.535367,0.344178,0.357213,-32.597168,8.140625,29.927246,,,,,,
1484020918.069815,-1.918302,0.873161,-2.995221,1.803723,4.829224,2.765695,-0.604008,-0.766363,0.218774,-0.764019,0.232077,0.448295,-35.059265,10.694702,30.135742,,,,,,
1484020918.089834,-1.840785,0.820915,-2.975797,1.115040,4.335555,2.063128,-0.656862,-0.731770,0.181784,-0.746626,0.111012,0.502512,-36.024994,12.644775,29.224548,,,,,,
1484020918.109823,-1.763885,0.786627,-2.974774,0.032786,3.661088,1.435429,-0.693113,-0.707975,0.135520,-0.663287,0.010298,0.602395,-36.024994,12.644775,29.224548,,,,,,
1484020918.129843,-1.686429,0.764462,-2.991465,-0.629709,3.102583,1.050574,-0.716935,-0.692149,0.083273,-0.678283,-0.060659,0.603144,-36.840454,14.890869,25.837097,,,,,,
1484020918.149832,-1.615475,0.747817,-3.015283,-0.839301,2.535136,0.831390,-0.732444,-0.680040,0.032746,-0.669763,-0.056243,0.500121,-36.386475,15.936523,23.357544,,,,,,
1484020918.169851,-1.552985,0.734878,-3.037553,-0.823058,2.337062,0.522622,-0.741795,-0.670496,-0.013214,-0.708416,-0.110631,0.467834,-35.709869,16.457458,21.330994,,,,,,
1484020918.189840,-1.490908,0.730756,-3.063598,-1.104845,2.180211,-0.098992,-0.742295,-0.667433,-0.059427,-0.778304,-0.151949,0.501352,-35.333054,17.053467,19.003540,,,,,,
1484020918.209860,-1.422570,0.738807,-3.102882,-1.605198,2.054466,-0.830436,-0.731166,-0.673406,-0.109179,-0.749471,-0.152674,0.537798,-35.333054,17.053467,19.003540,,,,,,
1484020918.229849,-1.342877,0.754288,3.122708,-2.124237,2.061045,-1.345040,-0.709913,-0.684770,-0.164664,-0.626803,-0.084837,0.484336,-33.606049,17.795715,15.627441,,,,,,
1484020918.249838,-1.251285,0.772597,3.049442,-2.372351,2.022110,-1.745205,-0.679858,-0.697997,-0.224929,-0.527860,-0.006959,0.373412,-31.807053,17.863953,12.929810,,,,,,
1484020918.269857,-1.155981,0.791572,2.967408,-2.381293,1.764358,-2.046853,-0.643130,-0.711459,-0.283214,-0.429135,0.041766,0.274730,-29.932068,18.082825,10.681519,,,,,,
1484020918.289846,-1.061593,0.809905,2.878368,-2.367156,1.397427,-2.308589,-0.602084,-0.724222,-0.336152,-0.338193,0.082742,0.217301,-27.605194,18.676025,8.507019,,,,,,
1484020918.309866,-0.963891,0.827160,2.780328,-2.434738,1.296312,-2.645550,-0.556074,-0.736012,-0.386094,-0.303134,0.128376,0.194734,-27.605194,18.676025,8.507019,,,,,,
1484020918.329855,-0.855694,0.839576,2.669635,-2.648882,1.339212,-2.835519,-0.504190,-0.744360,-0.437859,-0.219992,0.171438,0.185021,-24.225815,19.866272,5.356140,,,,,,
1484020918.349874,-0.740243,0.841525,2.552419,-2.797234,1.471617,-2.774773,-0.449415,-0.745660,-0.491952,-0.120836,0.211847,0.174020,-22.496017,20.986328,3.778137,,,,,,
1484020918.369863,-0.621693,0.830458,2.435637,-2.955673,1.646339,-2.654888,-0.392859,-0.738240,-0.548328,-0.054102,0.247945,0.170444,-20.387970,22.706421,2.647644,,,,,,
1484020918.389883,-0.509375,0.808425,2.324972,-2.945184,1.502001,-2.599612,-0.336778,-0.723200,-0.602962,-0.059096,0.263529,0.124675,-18.202850,24.876099,1.215088,,,,,,
1484020918.409872,-0.409151,0.780249,2.222013,-2.824747,1.238754,-2.636303,-0.282753,-0.703457,-0.652073,-0.041236,0.274410,0.099186,-18.202850,24.876099,1.215088,,,,,,
,,,,,,,,,,,,,,,,33.759171,-118.389238,321.515594,-1.000000,-1.000000,1484020918.385712
1484020918.429891,-0.323214,0.747184,2.126834,-2.769925,0.870817,-2.590731,-0.233004,-0.679575,-0.695619,-0.013517,0.281016,0.092088,-17.514740,27.573792,0.452637,,,,,,
1484020918.449880,-0.253401,0.708113,2.041312,-2.796230,0.490445,-2.495096,-0.190428,-0.650402,-0.735333,0.024076,0.301143,0.088147,-15.233902,33.794556,-0.099976,,,,,,
1484020918.469900,-0.200336,0.666621,1.963612,-2.628772,0.036444,-2.451259,-0.156396,-0.618334,-0.770197,0.041543,0.321398,0.014383,-14.990463,37.469482,0.031921,,,,,,
1484020918.489889,-0.159416,0.626058,1.895230,-2.418880,-0.012872,-2.250551,-0.128635,-0.585955,-0.800069,0.061862,0.285509,0.017766,-15.573410,40.845825,0.389221,,,,,,
1484020918.509909,-0.125756,0.585436,1.835550,-2.356149,-0.040055,-2.116687,-0.104538,-0.552563,-0.826890,-0.017929,0.301083,0.014634,-15.573410,40.845825,0.389221,,,,,,
1484020918.529898,-0.097358,0.543974,1.779495,-2.320406,-0.102349,-2.145622,-0.083174,-0.517540,-0.851607,-0.023684,0.278923,0.019225,-16.004318,44.597473,1.044800,,,,,,
1484020918.549887,-0.073441,0.500659,1.725550,-2.407351,-0.176364,-2.139556,-0.064369,-0.480003,-0.874902,-0.028252,0.254784,0.037744,-17.171585,51.050659,1.985840,,,,,,
1484020918.569906,-0.053901,0.453898,1.675725,-2.526308,-0.149920,-2.018656,-0.048420,-0.438472,-0.897440,-0.034801,0.235408,0.060693,-17.901886,54.878357,3.090576,,,,,,
1484020918.589895,-0.037310,0.404169,1.630759,-2.623154,-0.085068,-1.895003,-0.034296,-0.393255,-0.918790,-0.039618,0.219534,0.078747,-19.156219,58.857605,4.643799,,,,,,
1484020918.609915,-0.026505,0.352242,1.588512,-2.678459,-0.393400,-1.908133,-0.024875,-0.345003,-0.938272,-0.054425,0.238665,0.050485,-19.156219,58.857605,4.643799,,,,,,
1484020918.629904,-0.024566,0.300560,1.544613,-2.564829,-0.677772,-2.114151,-0.023463,-0.296055,-0.954883,-0.101949,0.231236,0.028125,-19.363678,62.382629,4.475891,,,,,,
1484020918.649923,-0.027627,0.247368,1.497412,-2.451398,-0.651100,-2.308298,-0.026783,-0.244853,-0.969190,-0.104489,0.204844,-0.017214,-22.920441,70.717590,7.578857,,,,,,
1484020918.669912,-0.029395,0.199789,1.448003,-2.333889,-0.643622,-2.386988,-0.028806,-0.198462,-0.979685,-0.109453,0.218131,-0.075903,-25.151642,74.323303,9.132446,,,,,,
1484020918.689932,-0.036537,0.159391,1.396984,-1.931681,-0.901153,-2.494410,-0.036066,-0.158717,-0.986665,-0.106925,0.195262,-0.157454,-25.958038,77.926331,10.313232,,,,,,
1484020918.709921,-0.049951,0.129666,1.344415,-1.410845,-1.199071,-2.578558,-0.049512,-0.129303,-0.990368,-0.093936,0.181762,-0.197544,-25.958038,77.926331,10.313232,,,,,,
1484020918.729940,-0.073426,0.109800,1.289072,-1.032348,-1.679659,-2.771613,-0.072919,-0.109580,-0.991300,-0.145694,0.178351,-0.192202,-28.415405,81.307251,11.792664,,,,,,
1484020918.749929,-0.104840,0.098801,1.229503,-0.681185,-2.048973,-3.013154,-0.104138,-0.098641,-0.989659,-0.153049,0.152123,-0.234614,-30.804871,83.263062,13.279297,,,,,,
1484020918.769949,-0.146061,0.097744,1.165310,-0.315325,-2.530683,-3.257427,-0.144847,-0.097588,-0.984630,-0.118977,0.159234,-0.251058,-36.715073,85.901733,16.482239,,,,,,
1484020918.789938,-0.187916,0.105942,1.098689,-0.097166,-2.255806,-3.402308,-0.185765,-0.105744,-0.976888,-0.042324,0.165253,-0.260493,-39.041550,85.457458,17.980957,,,,,,
1484020918.809957,-0.222838,0.118042,1.030420,-0.074067,-2.167402,-3.495143,-0.219461,-0.117768,-0.968487,-0.004843,0.189225,-0.333759,-39.041550,85.457458,17.980957,,,,,,
1484020918.829946,-0.262908,0.139815,0.961484,0.427548,-2.724446,-3.651634,-0.257354,-0.139360,-0.956215,0.000930,0.229936,-0.415229,-41.143768,84.862793,19.480774,,,,,,
1484020918.849935,-0.310301,0.174692,0.894388,0.928249,-2.908984,-3.701080,-0.300698,-0.173805,-0.937749,0.052605,0.199882,-0.443111,-44.000412,83.369568,21.133972,,,,,,
1484020918.869955,-0.354996,0.221639,0.832652,1.405148,-2.836833,-3.589802,-0.339084,-0.219829,-0.914712,0.085483,0.200023,-0.481880,-48.532562,76.631104,24.235901,,,,,,
1484020918.889916,-0.399841,0.277225,0.778831,1.761675,-2.952805,-3.393122,-0.374409,-0.273687,-0.885953,0.077870,0.229818,-0.497989,-49.899399,73.110352,25.751404,,,,,,
1484020918.909935,-0.442034,0.339384,0.732519,2.020728,-2.701210,-3.246398,-0.403378,-0.332906,-0.852326,0.035687,0.237173,-0.457580,-49.899399,73.110352,25.751404,,,,,,
1484020918.929925,-0.477680,0.403886,0.692245,2.077928,-2.436568,-3.047096,-0.422731,-0.392995,-0.816611,0.068941,0.226964,-0.464975,-50.600510,67.787903,26.751953,,,,,,
1484020918.949944,-0.509848,0.468498,0.657259,2.132843,-2.285508,-2.876156,-0.435457,-0.451547,-0.778770,0.135545,0.274987,-0.432183,-50.548401,63.065002,28.200684,,,,,,
1484020918.969933,-0.539633,0.535330,0.629488,2.428779,-2.147249,-2.658493,-0.441938,-0.510125,-0.737878,0.193067,0.250847,-0.437827,-50.948578,57.892761,29.575928,,,,,,
1484020918.989953,-0.574428,0.607975,0.613583,2.919847,-2.165509,-2.391264,-0.445989,-0.571207,-0.689069,0.254705,0.283045,-0.430117,-50.019974,48.369934,32.024963,,,,,,
1484020919.009942,-0.611656,0.683018,0.612262,3.179775,-1.697582,-1.996762,-0.445409,-0.631137,-0.635041,0.250493,0.277133,-0.381301,-50.019974,48.369934,32.024963,,,,,,
1484020919.029961,-0.650481,0.753106,0.627983,3.211928,-1.272274,-1.307965,-0.441804,-0.683908,-0.580585,0.183610,0.259531,-0.463589,-48.916489,43.945129,33.248718,,,,,,
1484020919.049950,-0.691601,0.815779,0.664590,3.481372,-0.570880,-0.741620,-0.437065,-0.728260,-0.527837,0.292656,0.310154,-0.341380,-48.711670,39.747253,34.844971,,,,,,
1484020919.069970,-0.744869,0.877139,0.722996,3.709932,-0.581899,-0.456042,-0.433403,-0.768913,-0.470038,0.311241,0.320808,-0.304895,-48.274628,36.974365,36.659485,,,,,,
1484020919.089959,-0.826415,0.936284,0.804517,3.989842,-1.028729,-0.225324,-0.435998,-0.805361,-0.401622,0.326912,0.333407,-0.242818,-46.345352,32.550598,39.459534,,,,,,
1484020919.109978,-0.935650,0.989320,0.912962,4.106666,-0.918614,0.031663,-0.442144,-0.835653,-0.325872,0.312780,0.316778,-0.172632,-46.345352,32.550598,39.459534,,,,,,
1484020919.129967,-1.062659,1.028119,1.045033,3.953050,-0.641142,0.426445,-0.451181,-0.856329,-0.251270,0.307931,0.301306,-0.133969,-46.274780,31.428955,41.790283,,,,,,
1484020919.149956,-1.195870,1.047835,1.192308,3.740695,-0.086104,0.879236,-0.464753,-0.866344,-0.182900,0.301866,0.303295,-0.081077,-46.576233,30.834045,44.867798,,,,,,
1484020919.169976,-1.316954,1.050058,1.341809,3.486195,0.774505,1.124130,-0.481578,-0.867452,-0.124940,0.256114,0.280294,-0.020614,-46.872574,31.362549,46.889648,,,,,,
1484020919.189965,-1.414442,1.039098,1.479647,3.175606,1.161213,1.310094,-0.500814,-0.861947,-0.078949,0.270787,0.268701,-0.012986,-47.833237,33.918701,50.025513,,,,,,
1484020919.209984,-1.496359,1.016387,1.599419,2.795369,0.958012,1.616748,-0.524983,-0.850212,-0.039151,0.294987,0.272071,0.009564,-47.833237,33.918701,50.025513,,,,,,
1484020919.229973,-1.558138,0.981939,1.696117,2.436271,1.050063,1.979272,-0.555367,-0.831576,-0.007031,0.252266,0.250414,-0.012882,-48.723724,35.721497,50.990112,,,,,,
1484020919.249993,-1.604926,0.938115,1.781310,2.556988,1.205848,2.249530,-0.590964,-0.806445,0.020177,0.238105,0.253039,-0.110052,-50.138031,37.750305,52.102783,,,,,,
1484020919.269982,-1.644126,0.889877,1.864505,2.698134,1.446994,2.257399,-0.627816,-0.776994,0.046120,0.124642,0.222703,-0.052407,-50.648132,40.602966,53.362793,,,,,,
1484020919.290001,-1.664252,0.843406,1.938027,2.471149,2.088541,2.043447,-0.662021,-0.746912,0.062050,0.021854,0.128001,0.089576,-52.506332,43.906555,53.943481,,,,,,
1484020919.309990,-1.657137,0.802648,1.994615,1.760923,2.641058,1.703437,-0.692216,-0.719199,0.059915,0.043321,0.106665,0.216803,-52.506332,43.906555,53.943481,,,,,,
1484020919.330010,-1.617252,0.768781,2.020960,0.641893,3.112227,1.651315,-0.717984,-0.695259,0.033379,0.112820,0.135445,0.233711,-55.181259,48.935364,53.764343,,,,,,
1484020919.349999,-1.561586,0.732882,2.028730,0.239277,2.934375,1.889307,-0.743218,-0.669014,-0.006846,0.127037,0.138527,0.076426,-55.323257,50.732605,51.805115,,,,,,
1484020919.370019,-1.517846,0.693323,2.039372,0.439494,2.336190,2.031145,-0.768048,-0.639097,-0.040706,0.006070,0.142835,-0.032582,-56.067993,52.005432,49.622742,,,,,,
1484020919.390008,-1.484547,0.654702,2.058346,0.686773,2.295015,1.838281,-0.790281,-0.608923,-0.068331,-0.162417,0.062597,0.047502,-56.806931,54.329773,48.484985,,,,,,
1484020919.410027,-1.445471,0.624542,2.076630,0.439641,2.708333,1.429982,-0.804868,-0.584726,-0.101402,-0.199572,0.018961,0.114067,-56.806931,54.329773,48.484985,,,,,,
1484020919.430016,-1.388940,0.598985,2.084697,-0.025655,3.225622,1.310857,-0.812289,-0.563805,-0.149370,-0.243147,0.046944,0.141848,-58.291885,57.627808,45.616211,,,,,,
1484020919.450036,-1.325128,0.573318,2.086627,-0.282081,3.177827,1.213698,-0.814882,-0.542422,-0.204318,-0.223250,0.010150,0.155215,-57.988724,58.523315,42.987183,,,,,,
1484020919.470025,-1.269098,0.551377,2.084241,-0.437027,2.463374,0.915561,-0.813331,-0.523861,-0.253107,-0.230569,-0.032017,0.114496,-57.235062,59.493591,40.583557,,,,,,
1484020919.490014,-1.227306,0.535097,2.079843,-0.436844,1.695096,0.595118,-0.809969,-0.509925,-0.289700,-0.261960,-0.019433,0.037152,-57.307693,60.239685,37.879639,,,,,,
1484020919.510033,-1.198279,0.525587,2.074008,-0.356832,1.127169,0.198648,-0.805701,-0.501721,-0.314837,-0.273233,-0.045810,-0.017667,-57.307693,60.239685,37.879639,,,,,,
1484020919.530022,-1.176497,0.525001,2.067962,-0.204121,0.839101,-0.223727,-0.798923,-0.501214,-0.332424,-0.251431,-0.052634,-0.024357,-57.608002,60.313110,36.528809,,,,,,
1484020919.550042,-1.159082,0.532545,2.059842,-0.162480,0.577683,-0.665972,-0.789526,-0.507727,-0.344763,-0.279779,-0.041452,-0.066080,-56.414627,59.257263,33.835876,,,,,,
1484020919.570031,-1.140322,0.550968,2.047389,-0.080766,0.730777,-1.254396,-0.774287,-0.523512,-0.355549,-0.226629,-0.110048,-0.081814,-55.896500,57.980103,32.868103,,,,,,
1484020919.590050,-1.117181,0.578847,2.036064,0.394389,0.936933,-1.562950,-0.752438,-0.547059,-0.366829,-0.135029,0.020631,-0.103996,-55.084518,55.501892,31.606689,,,,,,
1484020919.610039,-1.095800,0.610887,2.038043,0.970868,1.184781,-1.259546,-0.728456,-0.573594,-0.374621,0.034059,0.070436,-0.119062,-55.084518,55.501892,31.606689,,,,,,
1484020919.630059,-1.079095,0.641244,2.049395,1.150240,1.238204,-1.091220,-0.706417,-0.598193,-0.378339,-0.030812,0.000247,0.007062,-54.274307,52.649170,30.572144,,,,,,
1484020919.650048,-1.057075,0.669130,2.058585,0.845649,1.436114,-1.022191,-0.683118,-0.620304,-0.385452,-0.021930,-0.008282,0.093704,-49.808212,46.261536,26.635742,,,,,,
1484020919.670067,-1.028954,0.691282,2.058092,0.387533,1.343958,-0.981749,-0.660073,-0.637526,-0.397322,0.026818,0.154814,0.062544,-48.246872,43.706604,24.850891,,,,,,
1484020919.690056,-0.997136,0.712019,2.049861,0.257610,1.347145,-1.060024,-0.635857,-0.653363,-0.410856,-0.007042,0.060117,0.060773,-47.285522,41.078613,23.815552,,,,,,
1484020919.710076,-0.962186,0.730360,2.040653,0.185320,1.524669,-0.863135,-0.611176,-0.667138,-0.425900,-0.048446,0.038353,0.055798,-47.285522,41.078613,23.815552,,,,,,
1484020919.730065,-0.920569,0.742764,2.029114,-0.047165,1.758190,-0.738909,-0.586295,-0.676327,-0.445915,-0.035714,0.037090,-0.022270,-45.346054,39.197327,21.577820,,,,,,
1484020919.750084,-0.880504,0.751046,2.018480,0.005007,1.502512,-0.439920,-0.563626,-0.682404,-0.465458,-0.000980,-0.032409,-0.116238,-41.990738,35.587280,18.300842,,,,,,
1484020919.770073,-0.855351,0.759764,2.017731,0.435292,1.115517,-0.346090,-0.547230,-0.688751,-0.475565,-0.079723,-0.034318,-0.165075,-40.270782,34.683228,17.257935,,,,,,
1484020919.790093,-0.839123,0.773652,2.024088,0.743595,0.975987,-0.373220,-0.532271,-0.698753,-0.477946,0.008757,0.039893,-0.093572,-39.605682,32.805664,16.218323,,,,,,
1484020919.810082,-0.827747,0.788044,2.032148,0.626289,0.801865,-0.313649,-0.519340,-0.708975,-0.477116,0.049049,0.028891,0.006169,-39.605682,32.805664,16.218323,,,,,,
1484020919.830071,-0.816606,0.796842,2.037971,0.340954,0.774717,-0.069856,-0.509426,-0.715153,-0.478583,0.055187,0.029835,0.050055,-37.888947,31.226929,15.478882,,,,,,
1484020919.850091,-0.804880,0.797861,2.044342,0.137954,0.852293,0.206913,-0.503254,-0.715864,-0.484018,0.055668,0.024306,-0.012701,-36.695099,30.098633,14.436279,,,,,,
1484020919.870080,-0.789910,0.794717,2.052687,0.072865,1.211567,0.373631,-0.497548,-0.713666,-0.493079,0.021474,0.059857,-0.019097,-35.873428,29.496460,13.840515,,,,,,
1484020919.890087,-0.762088,0.787843,2.060078,-0.169063,2.033186,0.434559,-0.487015,-0.708833,-0.510266,-0.003524,0.122484,0.053830,-34.825165,29.268127,12.643250,,,,,,
1484020919.910076,-0.708126,0.773012,2.061375,-0.764737,3.051193,0.597460,-0.465572,-0.698295,-0.543717,-0.014134,0.081809,0.037903,-34.825165,29.268127,12.643250,,,,,,
1484020919.930096,-0.645018,0.748845,2.057404,-1.124579,2.931213,0.658819,-0.440374,-0.680793,-0.585313,-0.005534,0.075538,0.062883,-33.251770,29.113281,10.996338,,,,,,
1484020919.950085,-0.591262,0.721429,2.055021,-1.212139,2.458989,0.774696,-0.418538,-0.660458,-0.623395,0.008046,0.048550,0.085950,-31.374878,29.707275,8.821228,,,,,,
1484020919.970104,-0.543036,0.688906,2.054713,-1.509313,2.351177,0.894735,-0.398892,-0.635693,-0.660893,0.050366,0.064557,0.140141,-27.841263,31.722473,5.891479,,,,,,
1484020919.990093,-0.502447,0.654968,2.053586,-1.367051,1.782510,0.727771,-0.381918,-0.609134,-0.695050,-0.104669,0.145481,-0.047809,-26.259537,33.217896,4.386353,,,,,,
1484020920.010113,-0.470887,0.634153,2.055320,-0.582329,1.656951,0.439439,-0.365470,-0.592495,-0.717900,-0.150353,0.087292,-0.082683,-26.259537,33.217896,4.386353,,,,,,
1484020920.030102,-0.432730,0.623265,2.058546,-0.475280,2.231248,0.333994,-0.340503,-0.583690,-0.737132,-0.050793,0.075877,0.034038,-25.052887,34.639709,3.481018,,,,,,
1484020920.050121,-0.385541,0.605882,2.061827,-0.914776,2.570058,0.583154,-0.309122,-0.569487,-0.761661,-0.039938,0.117430,0.050815,-23.552216,34.861084,2.582153,,,,,,
1484020920.070110,-0.338030,0.577325,2.069298,-1.439297,2.542861,0.910524,-0.277881,-0.545784,-0.790507,-0.050748,0.106377,0.078212,-19.651047,35.302246,0.560852,,,,,,
1484020920.090130,-0.296718,0.537290,2.078056,-1.984867,2.147363,0.975008,-0.251186,-0.511810,-0.821557,-0.090443,0.108856,0.078546,-17.320999,36.422058,-0.566284,,,,,,
1484020920.110119,-0.261999,0.491036,2.083230,-2.234169,1.754722,0.766189,-0.228408,-0.471540,-0.851751,-0.078568,0.063916,0.093511,-17.320999,36.422058,-0.566284,,,,,,
1484020920.130108,-0.229195,0.442727,2.085157,-2.401858,1.685424,0.653570,-0.205289,-0.428405,-0.879958,-0.025882,0.062362,0.158995,-15.807938,39.044617,-0.652161,,,,,,
1484020920.150127,-0.199448,0.389563,2.089268,-2.665803,1.401660,0.793106,-0.183284,-0.379784,-0.906736,-0.003468,0.105202,0.141203,-14.444305,41.816895,-1.113953,,,,,,
1484020920.170116,-0.181907,0.338355,2.092752,-2.258257,0.773841,0.521027,-0.170648,-0.331936,-0.927738,-0.190786,0.139538,-0.123700,-13.606079,44.440979,-0.900818,,,,,,
1484020920.190136,-0.166751,0.304836,2.093524,-1.286989,0.814469,0.223556,-0.158327,-0.300136,-0.940665,-0.135710,0.012417,-0.132715,-12.003189,49.988953,-0.626160,,,,,,
1484020920.210125,-0.149514,0.286845,2.093066,-0.728142,0.878927,0.096310,-0.142871,-0.282927,-0.948441,-0.118756,0.069518,-0.066620,-12.003189,49.988953,-0.626160,,,,,,
1484020920.230144,-0.133344,0.272732,2.094746,-0.731231,0.803384,0.243427,-0.128035,-0.269364,-0.954489,-0.066560,0.085160,-0.000680,-10.873077,51.036926,-0.854736,,,,,,
1484020920.250133,-0.120109,0.253253,2.100744,-1.076697,0.675900,0.508645,-0.115998,-0.250555,-0.961128,-0.010695,0.107656,0.077629,-10.570786,51.486633,-0.781494,,,,,,
1484020920.270153,-0.112440,0.226456,2.109863,-1.384062,0.358870,0.625032,-0.109339,-0.224525,-0.968315,0.011087,0.143318,0.090171,-9.667938,52.084778,-1.083130,,,,,,
1484020920.290142,-0.112998,0.196708,2.119438,-1.401915,-0.120070,0.632406,-0.110583,-0.195442,-0.974461,-0.034482,0.092796,0.016743,-8.602997,55.083008,-1.171570,,,,,,
1484020920.310162,-0.126165,0.170310,2.128094,-1.153950,-0.876844,0.534371,-0.124010,-0.169488,-0.977699,-0.044157,0.058404,-0.087792,-8.602997,55.083008,-1.171570,,,,,,
1484020920.330151,-0.153610,0.151795,2.134344,-0.685582,-1.550943,0.367607,-0.151247,-0.151213,-0.976862,0.005022,0.056410,-0.090887,-8.744125,56.882935,-1.405762,,,,,,
1484020920.350170,-0.183652,0.140617,2.139859,-0.448216,-1.335487,0.365426,-0.180819,-0.140154,-0.973479,-0.068449,0.035479,-0.049699,-10.237366,58.235168,-1.414734,,,,,,
1484020920.370159,-0.198997,0.129407,2.144884,-0.539465,-0.223711,0.336541,-0.196033,-0.129046,-0.972069,-0.180340,0.061800,0.046852,-11.659912,58.761719,-1.794495,,,,,,
1484020920.390179,-0.199938,0.114521,2.148459,-0.798145,0.006539,0.312479,-0.197307,-0.114270,-0.973659,-0.194386,-0.000674,-0.058537,-13.075684,60.638306,-2.106018,,,,,,
1484020920.410168,-0.202299,0.095080,2.150909,-0.980954,-0.223286,0.297941,-0.200015,-0.094936,-0.975183,-0.158887,-0.011326,-0.165885,-13.075684,60.638306,-2.106018,,,,,,
1484020920.430187,-0.210171,0.076326,2.151692,-0.828993,-0.539271,0.192712,-0.208020,-0.076252,-0.975148,0.003720,0.035404,-0.139964,-13.893250,62.065491,-1.514404,,,,,,
1484020920.450176,-0.227640,0.064456,2.152577,-0.388992,-1.038592,0.166470,-0.225210,-0.064411,-0.972179,0.074270,0.057255,-0.123051,-13.510468,63.639648,-1.671692,,,,,,
1484020920.470165,-0.249822,0.061918,2.155747,0.077461,-1.095056,0.198419,-0.246757,-0.061879,-0.967100,0.111076,0.052403,-0.016818,-15.302170,65.292480,-1.607666,,,,,,
1484020920.490185,-0.269375,0.066139,2.161732,0.390080,-0.841852,0.264214,-0.265548,-0.066091,-0.961830,0.116118,0.018575,0.075370,-16.871872,66.344849,-1.540222,,,,,,
1484020920.510174,-0.279766,0.074198,2.170569,0.549712,-0.237543,0.335576,-0.275371,-0.074130,-0.958476,0.032650,0.027651,0.070841,-16.871872,66.344849,-1.540222,,,,,,
1484020920.530193,-0.280097,0.079195,2.178631,0.206642,0.328551,0.244960,-0.275583,-0.079112,-0.958016,-0.036841,0.026851,0.098779,-18.377930,65.146912,-1.686523,,,,,,
1484020920.550182,-0.270898,0.071670,2.180245,-0.672574,0.553451,0.144531,-0.266910,-0.071609,-0.961057,-0.024014,-0.009903,0.035963,-18.083572,64.095398,-2.430786,,,,,,
1484020920.570202,-0.254256,0.052129,2.177901,-1.068220,0.975683,0.151658,-0.251184,-0.052106,-0.966536,0.090127,0.002743,0.067473,-17.631073,64.619385,-2.657715,,,,,,
1484020920.590191,-0.230617,0.032080,2.175933,-0.915991,1.314613,0.137995,-0.228460,-0.032075,-0.973025,0.117392,-0.001052,0.090456,-16.875702,65.668579,-2.436829,,,,,,
1484020920.610210,-0.200042,0.015937,2.175306,-0.748917,1.654708,0.151024,-0.198685,-0.015936,-0.979934,0.094025,-0.003335,0.065475,-16.875702,65.668579,-2.436829,,,,,,
1484020920.630199,-0.163007,0.000132,2.175909,-0.824810,1.952314,0.189519,-0.162286,-0.000132,-0.986744,0.014474,0.045268,-0.016339,-14.993073,67.240051,-2.891846,,,,,,
1484020920.650219,-0.125411,-0.020126,2.176952,-1.092207,1.763143,0.182732,-0.125057,0.020125,-0.991945,-0.049824,0.059969,-0.171919,-12.441483,67.610474,-3.414856,,,,,,
1484020920.670208,-0.097614,-0.041066,2.177104,-0.919886,1.141596,0.080552,-0.097377,0.041054,-0.994400,-0.038213,0.077873,-0.202423,-10.412628,68.357727,-3.190613,,,,,,
1484020920.690227,-0.084175,-0.049076,2.176121,-0.041588,0.415861,-0.069421,-0.083975,0.049056,-0.995260,0.045446,0.097368,-0.195765,-9.129547,69.931458,-2.746521,,,,,,
1484020920.710216,-0.080970,-0.037558,2.174103,0.905136,0.096229,-0.195792,-0.080824,0.037549,-0.996021,0.093672,0.087481,-0.054699,-9.129547,69.931458,-2.746521,,,,,,
1484020920.730236,-0.076330,-0.009731,2.169691,1.638802,0.366144,-0.429792,-0.076252,0.009730,-0.997041,0.080311,0.075322,0.116502,-8.906235,69.556702,-2.369385,,,,,,
1484020920.750225,-0.061992,0.030195,2.160945,2.084028,0.975341,-0.633924,-0.061924,-0.030190,-0.997624,0.001912,0.050515,0.146428,-7.500671,65.802612,-3.698425,,,,,,
1484020920.770214,-0.039082,0.071068,2.149196,1.845217,1.119790,-0.671723,-0.038973,-0.071008,-0.996714,-0.066022,0.009896,0.016627,-6.022156,61.598999,-4.650208,,,,,,
1484020920.790234,-0.021751,0.091434,2.140208,0.397086,0.634397,-0.336648,-0.021659,-0.091307,-0.995587,-0.076104,-0.015474,-0.079700,-4.616180,57.846191,-5.154297,,,,,,
1484020920.810223,-0.013441,0.079448,2.137654,-1.142873,0.314888,-0.018970,-0.013398,-0.079364,-0.996756,0.012666,0.022693,0.078772,-4.616180,57.846191,-5.154297,,,,,,
1484020920.830242,-0.008968,0.046715,2.138421,-1.812918,0.152883,0.078322,-0.008958,-0.046698,-0.998869,0.050446,0.010336,0.172377,-3.348114,56.493591,-5.520630,,,,,,
1484020920.850231,-0.013391,0.012163,2.139562,-1.576440,-0.672015,0.064352,-0.013390,-0.012163,-0.999836,0.058495,-0.028777,-0.014354,-2.727875,60.468872,-4.789612,,,,,,
1484020920.870251,-0.030348,-0.007110,2.138693,-0.529160,-0.296341,-0.103002,-0.030342,0.007109,-0.999514,-0.030616,0.016633,-0.453672,-3.987274,63.546326,-4.356873,,,,,,
1484020920.890214,-0.026427,-0.005874,2.136627,0.325671,0.355472,-0.056945,-0.026423,0.005874,-0.999634,-0.045293,0.054048,0.200424,-4.880814,64.822937,-4.214600,,,,,,
1484020920.910233,-0.020682,0.007381,2.138104,0.838937,0.255750,0.120769,-0.020680,-0.007381,-0.999759,-0.016719,0.004757,0.107196,-4.880814,64.822937,-4.214600,,,,,,
1484020920.930222,-0.010981,0.026961,2.142820,1.026819,0.605434,0.285186,-0.010977,-0.026957,-0.999576,-0.040461,0.022303,0.019428,-3.683487,64.295959,-4.285217,,,,,,
1484020920.950242,-0.000044,0.045707,2.150670,0.872801,0.452127,0.442503,-0.000044,-0.045691,-0.998956,-0.013888,0.025260,0.023751,-2.655930,59.942505,-5.611877,,,,,,
1484020920.970231,0.002816,0.060054,2.160514,0.621823,0.027351,0.514619,0.002811,-0.060018,-0.998193,0.009198,0.032797,0.012048,-1.089920,58.140137,-5.600525,,,,,,
1484020920.990250,-0.003997,0.068291,2.170787,0.308071,-0.533784,0.510505,-0.003988,-0.068238,-0.997661,0.005620,0.030335,0.054180,-1.474670,56.264587,-6.341736,,,,,,
1484020921.010239,-0.030468,0.069316,2.180359,-0.100244,-1.853671,0.455397,-0.030390,-0.069261,-0.997136,0.008738,0.046235,0.039662,-1.474670,56.264587,-6.341736,,,,,,
1484020921.030259,-0.097337,0.062177,2.188122,-0.453151,-4.327010,0.388029,-0.096996,-0.062137,-0.993343,0.098827,0.060612,0.222332,-1.257889,54.688293,-7.008484,,,,,,
1484020921.050248,-0.056782,0.044550,2.189446,-1.142065,-0.129876,0.057290,-0.056695,-0.044535,-0.997398,0.216073,0.064936,-0.645531,-3.576553,56.040466,-7.843750,,,,,,
1484020921.070267,0.000947,0.028543,2.186622,-0.680714,3.106944,-0.195546,0.000947,-0.028539,-0.999592,0.042922,0.064169,0.211964,-3.192963,57.690979,-7.176453,,,,,,
1484020921.090256,0.002315,0.021958,2.184593,-0.093068,-0.013407,-0.023381,0.002315,-0.021957,-0.999756,0.086598,0.061141,0.663834,-0.868271,57.612732,-7.022522,,,,,,
1484020921.110245,0.001034,0.028402,2.184681,0.507399,-0.167438,0.019846,0.001033,-0.028398,-0.999596,0.026112,0.024752,-0.135871,-0.868271,57.612732,-7.022522,,,,,,
1484020921.130265,-0.000102,0.035694,2.184630,0.824203,-0.167835,0.011167,-0.000102,-0.035687,-0.999363,0.003703,0.027066,0.027638,-0.942444,57.836914,-7.623840,,,,,,
1484020921.150254,-0.005105,0.054515,2.184729,0.999765,-0.249094,-0.000051,-0.005098,-0.054488,-0.998501,0.006212,0.034041,0.007931,-1.098404,56.637268,-7.543030,,,,,,
1484020921.170273,-0.006534,0.063992,2.184779,-0.116673,-0.008319,0.001023,-0.006520,-0.063948,-0.997932,0.000234,-0.034608,0.087928,-1.413437,53.711487,-8.353882,,,,,,
1484020921.190262,-0.006464,0.059695,2.184792,-0.136926,-0.007428,-0.005446,-0.006452,-0.059659,-0.998198,0.023802,0.034254,-0.029344,-1.040802,53.260620,-8.576050,,,,,,
1484020921.210282,-0.006156,0.054890,2.184851,0.030607,-0.025084,0.010207,-0.006147,-0.054862,-0.998475,0.015607,0.015830,-0.015822,-1.040802,53.260620,-8.576050,,,,,,
1484020921.230271,-0.005250,0.053034,2.184797,0.060406,-0.013130,-0.000530,-0.005243,-0.053009,-0.998580,0.007272,0.012345,0.016280,-1.262436,53.935974,-8.579773,,,,,,
1484020921.250291,-0.004551,0.052176,2.184768,-0.017587,0.003176,0.000097,-0.004545,-0.052153,-0.998629,0.004728,0.011992,-0.005796,-1.412354,53.936401,-8.429993,,,,,,
1484020921.270280,-0.003662,0.050535,2.184721,-0.005837,0.000098,0.000172,-0.003657,-0.050514,-0.998717,0.006694,0.010612,0.007338,-1.337326,53.936401,-8.354919,,,,,,
1484020921.290299,-0.003529,0.049660,2.184719,0.004837,-0.000868,-0.000850,-0.003525,-0.049640,-0.998761,0.003632,0.008609,0.001752,-1.112320,53.936035,-8.354553,,,,,,
1484020921.310288,-0.002671,0.048309,2.184681,-0.000524,0.001210,0.001241,-0.002668,-0.048290,-0.998830,0.004163,0.007869,-0.003123,-1.112320,53.936035,-8.354553,,,,,,
1484020921.330308,-0.002006,0.047162,2.184663,-0.001580,-0.000920,0.001267,-0.002003,-0.047144,-0.998886,0.005315,0.006327,0.018921,-1.337433,53.936096,-8.579895,,,,,,
1484020921.350297,-0.001693,0.046166,2.184668,0.001600,0.001233,0.001249,-0.001691,-0.046150,-0.998933,0.002714,0.007774,-0.002578,-1.410583,54.237122,-7.906494,,,,,,
1484020921.370316,-0.001405,0.045372,2.184686,0.000530,0.001225,0.001246,-0.001404,-0.045356,-0.998970,0.002243,0.006446,0.008446,-1.562469,53.862427,-7.904846,,,,,,
1484020921.390305,-0.001213,0.044894,2.184708,-0.000535,0.001218,0.000177,-0.001212,-0.044879,-0.998992,0.002143,0.005572,0.003615,-1.562332,53.936707,-8.355225,,,,,,
1484020921.410294,-0.000961,0.044407,2.184701,0.000541,-0.000896,0.001275,-0.000960,-0.044392,-0.999014,0.001418,0.003789,0.006643,-1.562332,53.936707,-8.355225,,,,,,
1484020921.430314,-0.000752,0.044085,2.184706,0.001602,0.000177,0.000198,-0.000751,-0.044071,-0.999028,0.002720,0.003345,0.005467,-1.336578,54.086365,-8.355652,,,,,,
1484020921.450303,-0.000457,0.043806,2.184724,0.001597,0.000178,0.001264,-0.000456,-0.043792,-0.999041,0.003462,0.005004,0.004107,-1.562180,53.937195,-8.055176,,,,,,
