timestamp(unix),attitude_roll(radians),attitude_pitch(radians),attitude_yaw(radians),rotation_rate_x(radians/s),rotation_rate_y(radians/s),rotation_rate_z(radians/s),gravity_x(G),gravity_y(G),gravity_z(G),user_acc_x(G),user_acc_y(G),user_acc_z(G),magnetic_field_x(microteslas),magnetic_field_y(microteslas),magnetic_field_z(microteslas),latitude(degree),longitude(degree),altitude(meter),speed(m/s),course(degree),timestamp(unix)
1487811295.884705,0.163070,1.490803,0.577940,-0.346865,-0.070463,0.031245,0.012973,-0.996802,-0.078848,0.035138,-0.021218,-0.018213,-13.687012,-35.498833,2.179718,,,,,,
,,,,,,,,,,,,,,,,37.782440,-122.391505,11.848755,0.500000,300.937500,1487811295.886523
1487811295.904694,0.148279,1.485716,0.592324,-0.112602,-0.017462,0.031201,0.012554,-0.996383,-0.084045,0.013264,0.006255,-0.038117,-13.612564,-35.574501,1.805206,,,,,,
,,,,,,,,,,,,,,,,37.782440,-122.391505,11.848755,0.500000,300.937500,1487811295.002078
1487811295.924713,0.149359,1.487260,0.590532,0.158609,-0.037342,-0.012556,0.012416,-0.996513,-0.082510,-0.000667,0.017784,-0.022562,-13.988495,-35.798378,2.180756,,,,,,
1487811295.944702,0.161058,1.490707,0.577777,0.173928,-0.080710,-0.035397,0.012830,-0.996795,-0.078968,-0.006314,0.004989,-0.002315,-13.911926,-35.498268,2.329346,,,,,,
1487811295.964722,0.167728,1.493057,0.568174,0.086926,-0.156873,-0.004770,0.012965,-0.996980,-0.076571,-0.010050,-0.012648,0.046191,-13.986404,-35.348839,1.878479,,,,,,
1487811295.984711,0.157278,1.494472,0.577189,-0.041226,-0.003034,0.034437,0.011943,-0.997089,-0.075309,-0.022090,-0.007611,0.052543,-13.986404,-35.348839,1.878479,,,,,,
1487811296.004730,0.152595,1.492419,0.583156,-0.124846,0.073777,-0.012686,0.011901,-0.996930,-0.077387,-0.017303,0.011426,0.006113,-13.760605,-35.272942,2.703461,,,,,,
1487811296.024719,0.157249,1.490307,0.579458,-0.055108,0.028765,-0.039619,0.012591,-0.996762,-0.079411,-0.001757,0.004346,-0.010982,-13.762909,-35.723045,2.630707,,,,,,
1487811296.044739,0.165364,1.490227,0.571291,0.023005,-0.010906,-0.025003,0.013248,-0.996756,-0.079384,0.016598,-0.000192,-0.008827,-13.537445,-35.574287,2.030304,,,,,,
1487811296.064728,0.170857,1.490097,0.565557,-0.015460,-0.014459,0.003719,0.013706,-0.996746,-0.079438,0.015423,0.002162,-0.007965,-13.237915,-35.649956,1.881104,,,,,,
1487811296.084719,0.165855,1.489029,0.570057,-0.073984,-0.036208,0.009173,0.013484,-0.996659,-0.080555,-0.000224,0.005967,-0.008114,-13.237915,-35.649956,1.881104,,,,,,
,,,,,,,,,,,,,,,,37.782428,-122.391522,11.906647,0.500000,300.937500,1487811296.002079
1487811296.104709,0.156830,1.487681,0.578240,-0.050459,-0.042363,0.004001,0.012967,-0.996548,-0.082001,-0.014172,0.005108,-0.004455,-13.763809,-35.873497,2.331451,,,,,,
1487811296.124728,0.156005,1.487379,0.578307,0.000674,-0.027039,-0.010988,0.012946,-0.996523,-0.082309,-0.014060,0.008135,0.003665,-13.538651,-35.799507,1.881409,,,,,,
1487811296.144717,0.159473,1.487549,0.575154,0.005498,0.038812,-0.001183,0.013204,-0.996537,-0.082096,0.000376,-0.004607,0.003285,-13.538284,-35.724510,1.881042,,,,,,
1487811296.164737,0.156719,1.487301,0.578520,-0.028479,0.009834,0.017237,0.013017,-0.996516,-0.082376,0.011001,0.003215,-0.006415,-13.088760,-35.800514,1.657104,,,,,,
1487811296.184726,0.150640,1.486314,0.584118,-0.054800,-0.040298,0.023154,0.012663,-0.996433,-0.083426,0.005983,0.004399,-0.004388,-13.088760,-35.800514,1.657104,,,,,,
1487811296.204715,0.139522,1.485075,0.594299,-0.053586,-0.050875,-0.001215,0.011907,-0.996328,-0.084784,-0.013158,0.008215,-0.001702,-13.763687,-35.799278,1.806091,,,,,,
1487811296.224734,0.139117,1.484328,0.593736,-0.023776,-0.030411,-0.032321,0.011976,-0.996264,-0.085526,-0.012616,0.006274,0.000123,-13.463135,-35.650291,1.430786,,,,,,
1487811296.244723,0.144801,1.484568,0.588072,0.006745,0.019733,-0.014768,0.012427,-0.996285,-0.085221,0.005624,-0.016304,0.007660,-13.387451,-35.574501,2.030548,,,,,,
1487811296.264743,0.155212,1.484549,0.578438,-0.027634,0.042751,0.013592,0.013316,-0.996283,-0.085105,0.020390,-0.011957,0.004203,-13.462006,-35.425301,1.429657,,,,,,
1487811296.284732,0.158699,1.483323,0.575312,-0.058202,-0.007419,0.013072,0.013806,-0.996177,-0.086264,0.017154,-0.006951,-0.005182,-13.462006,-35.425301,1.429657,,,,,,
1487811296.304751,0.160967,1.481856,0.572135,-0.021423,-0.065458,-0.020200,0.014236,-0.996047,-0.087675,0.003907,0.007720,-0.012041,-13.613770,-35.799736,1.656311,,,,,,
1487811296.324740,0.168761,1.482043,0.563570,0.042191,-0.004372,-0.041096,0.014888,-0.996064,-0.087378,0.002675,0.000855,0.002279,-13.538757,-35.799843,1.656433,,,,,,
1487811296.344760,0.185656,1.483148,0.547449,0.064160,0.058460,-0.049344,0.016158,-0.996161,-0.086032,0.008134,-0.013284,0.001865,-13.239044,-35.874947,1.882233,,,,,,
1487811296.364749,0.206619,1.483752,0.527429,0.036574,0.034849,-0.040603,0.017835,-0.996214,-0.085085,0.017825,-0.014009,-0.002576,-13.689148,-35.874611,1.656586,,,,,,
1487811296.384768,0.220274,1.483635,0.514187,-0.007148,0.020629,-0.010703,0.019020,-0.996204,-0.084948,0.015495,-0.013867,-0.005110,-13.689148,-35.874611,1.656586,,,,,,
1487811296.404757,0.222843,1.482567,0.511809,-0.032586,-0.002954,-0.010477,0.019474,-0.996110,-0.085936,0.003201,0.007875,-0.013612,-13.612869,-35.649284,1.955566,,,,,,
1487811296.424777,0.221510,1.481442,0.512625,0.000639,-0.023892,-0.018636,0.019605,-0.996011,-0.087055,-0.000852,0.020913,-0.017803,-13.463013,-35.649956,1.655792,,,,,,
1487811296.444766,0.224428,1.481616,0.509065,0.043479,-0.037291,-0.047124,0.019821,-0.996026,-0.086829,-0.009689,0.032174,-0.008020,-13.462906,-35.649620,1.880768,,,,,,
1487811296.464785,0.231735,1.481904,0.500811,0.039315,-0.042610,-0.071577,0.020389,-0.996052,-0.086402,-0.022052,0.028187,-0.006356,-13.537979,-35.649727,1.730682,,,,,,
1487811296.484774,0.238750,1.482135,0.492659,0.012707,-0.052397,-0.068298,0.020940,-0.996072,-0.086033,-0.019826,0.009164,-0.000240,-13.537979,-35.649727,1.730682,,,,,,
1487811296.504794,0.245658,1.482294,0.485085,-0.010037,-0.010142,-0.053971,0.021495,-0.996086,-0.085733,-0.014278,0.000801,0.012613,-13.386520,-35.350075,1.654419,,,,,,
1487811296.524783,0.257381,1.482318,0.474059,-0.021255,0.052356,-0.017513,0.022493,-0.996088,-0.085452,0.014083,-0.015005,0.013339,-12.562531,-35.575966,1.881744,,,,,,
1487811296.544802,0.256165,1.481947,0.476247,-0.015925,0.039632,0.014669,0.022482,-0.996055,-0.085837,0.027597,-0.018150,-0.000665,-12.188217,-35.726311,2.033081,,,,,,
1487811296.564792,0.255224,1.481484,0.477492,-0.017704,-0.010284,0.017445,0.022518,-0.996014,-0.086304,0.021092,-0.005862,-0.007416,-13.088394,-35.725517,1.656738,,,,,,
1487811296.584811,0.252593,1.481419,0.478916,0.006381,-0.086488,-0.002807,0.022307,-0.996009,-0.086426,-0.002181,0.004508,-0.003342,-13.088394,-35.725517,1.656738,,,,,,
1487811296.604800,0.251209,1.482437,0.478693,0.049989,-0.063799,-0.013632,0.021935,-0.996099,-0.085475,-0.021295,-0.001750,0.016215,-13.313766,-35.800179,1.656769,,,,,,
1487811296.624820,0.260088,1.484024,0.469540,0.113395,0.019565,-0.018824,0.022287,-0.996238,-0.083749,-0.021722,-0.010369,0.049112,-13.012909,-35.650291,1.881439,,,,,,
1487811296.644809,0.275476,1.488007,0.455713,0.143493,0.129152,0.003277,0.022493,-0.996575,-0.079576,-0.004061,-0.024986,0.059603,-13.387299,-35.574059,2.330536,,,,,,
1487811296.664828,0.281703,1.489561,0.453706,0.014751,0.226746,0.012279,0.022558,-0.996702,-0.077947,0.011637,-0.007418,0.037405,-12.788528,-35.800285,2.107544,,,,,,
1487811296.684817,0.276950,1.487271,0.460836,-0.172662,0.031883,0.022846,0.022811,-0.996514,-0.080249,0.018128,-0.009239,-0.010144,-12.788528,-35.800285,2.107544,,,,,,
1487811296.704837,0.257787,1.483574,0.478581,-0.185513,-0.107298,0.023590,0.022208,-0.996199,-0.084234,0.002465,-0.002047,-0.006343,-13.088455,-35.799614,2.257080,,,,,,
1487811296.724826,0.238977,1.482017,0.495146,-0.032976,-0.105955,0.019764,0.020987,-0.996062,-0.086143,-0.022376,-0.001329,0.002326,-12.863663,-35.800514,1.882416,,,,,,
1487811296.744845,0.239730,1.483042,0.494297,0.087345,0.075583,0.003833,0.020810,-0.996152,-0.085136,-0.029416,-0.000171,0.029350,-13.163528,-35.799736,2.106995,,,,,,
1487811296.764834,0.241377,1.485043,0.495864,0.079198,0.166809,0.009017,0.020473,-0.996325,-0.083165,-0.020275,-0.000241,0.004247,-12.939667,-36.025063,2.108429,,,,,,
1487811296.784854,0.242694,1.486032,0.495856,0.031376,-0.005592,0.014369,0.020346,-0.996410,-0.082182,-0.007269,-0.001317,-0.025972,-12.939667,-36.025063,2.108429,,,,,,
1487811296.804843,0.237266,1.485870,0.499353,-0.013594,-0.125936,0.006240,0.019938,-0.996396,-0.082448,-0.000803,0.008862,-0.011439,-13.088440,-35.725624,1.581726,,,,,,
1487811296.824862,0.234531,1.485304,0.500220,-0.035392,-0.057111,-0.006469,0.019843,-0.996348,-0.083050,-0.012153,0.008860,0.012143,-13.088364,-35.725395,1.731720,,,,,,
1487811296.844851,0.234218,1.484675,0.501032,-0.048045,0.070172,-0.008191,0.019963,-0.996294,-0.083667,-0.004902,0.008974,0.013080,-13.313400,-35.725182,1.656403,,,,,,
1487811296.864871,0.235880,1.483883,0.501441,-0.014265,0.109725,0.011638,0.020286,-0.996225,-0.084400,0.006997,0.009104,-0.007717,-13.088608,-35.800072,1.957092,,,,,,
1487811296.884860,0.235537,1.483054,0.502157,0.056179,-0.053166,0.027845,0.020450,-0.996153,-0.085210,0.011578,0.014311,-0.032725,-13.088608,-35.800072,1.957092,,,,,,
1487811296.904879,0.232299,1.484659,0.502588,0.122100,-0.175747,0.038183,0.019806,-0.996292,-0.083720,0.002777,0.016114,-0.002675,-13.089142,-35.875511,1.657501,,,,,,
1487811296.924868,0.222753,1.488659,0.509019,0.131499,-0.143809,0.036744,0.018125,-0.996629,-0.080018,-0.016630,0.011353,0.034578,-13.313324,-35.724953,1.806396,,,,,,
1487811296.944888,0.217984,1.491276,0.513229,0.103236,0.065055,0.059488,0.017179,-0.996840,-0.077557,-0.013212,0.003249,0.065960,-13.463577,-35.799400,2.031555,,,,,,
1487811296.964877,0.205824,1.492023,0.529005,-0.072728,0.206830,0.061370,0.016083,-0.996899,-0.077031,-0.001663,0.012585,0.023625,-13.314102,-35.948936,2.482513,,,,,,
1487811296.984896,0.188089,1.489269,0.549304,-0.179267,0.048796,0.048231,0.015227,-0.996678,-0.080001,-0.000594,0.009679,-0.016419,-13.314102,-35.948936,2.482513,,,,,,
1487811297.004886,0.167662,1.485934,0.567897,-0.135018,-0.154605,0.013740,0.014145,-0.996401,-0.083572,-0.012222,0.014559,-0.013260,-13.162598,-35.575294,1.730865,,,,,,
1487811297.024905,0.168511,1.484470,0.564548,-0.027712,-0.072932,-0.042500,0.014460,-0.996276,-0.084998,-0.018580,0.005737,0.018469,-13.538651,-35.799507,1.881409,,,,,,
1487811297.044894,0.184676,1.485175,0.549275,0.032893,0.113404,-0.071463,0.015703,-0.996337,-0.084063,-0.003359,-0.001222,0.023440,-12.863739,-35.800743,1.732422,,,,,,
1487811297.064914,0.203023,1.485442,0.533234,0.011705,0.087727,-0.057318,0.017189,-0.996360,-0.083500,0.010307,-0.007486,-0.008236,-13.161728,-35.424965,1.955109,,,,,,
1487811297.084895,0.213982,1.484336,0.522003,-0.050152,-0.068889,-0.037294,0.018337,-0.996265,-0.084383,0.010746,-0.011243,-0.014845,-13.161728,-35.424965,1.955109,,,,,,
1487811297.104914,0.215131,1.482548,0.519041,-0.103431,-0.076787,-0.036275,0.018814,-0.996109,-0.086102,0.000641,-0.007431,-0.000446,-13.239487,-35.950172,1.732605,,,,,,
,,,,,,,,,,,,,,,,37.782420,-122.391528,11.980957,0.370000,300.937500,1487811297.002078
1487811297.124903,0.222859,1.480488,0.511338,-0.086169,0.051837,-0.058202,0.019933,-0.995925,-0.087956,0.002467,-0.004609,0.004948,-13.088684,-35.800285,1.807098,,,,,,
1487811297.144923,0.233119,1.479876,0.502763,0.025474,0.088879,-0.029576,0.020975,-0.995870,-0.088339,0.008398,-0.026195,0.001364,-12.938248,-35.725288,1.956940,,,,,,
1487811297.164912,0.242424,1.481076,0.495062,0.071319,0.074372,0.013397,0.021509,-0.995978,-0.086980,0.016852,-0.018060,-0.006786,-12.863815,-35.800972,1.582428,,,,,,
1487811297.184931,0.242775,1.481048,0.495330,-0.001703,-0.008016,0.016401,0.021546,-0.995975,-0.087000,0.004287,-0.000332,-0.017447,-12.863815,-35.800972,1.582428,,,,,,
1487811297.204920,0.233662,1.479556,0.503073,-0.049008,-0.094389,-0.011375,0.021097,-0.995840,-0.088638,-0.008020,0.006033,-0.012299,-13.390228,-36.099953,1.733154,,,,,,
1487811297.224940,0.231435,1.479018,0.503757,-0.008771,-0.047309,-0.026802,0.021022,-0.995791,-0.089206,-0.007365,-0.003278,0.003756,-13.014786,-36.025291,1.883331,,,,,,
1487811297.244929,0.237357,1.479924,0.498279,0.044818,0.062499,-0.020634,0.021338,-0.995874,-0.088204,-0.002310,-0.007208,0.006874,-12.862534,-35.575523,1.881317,,,,,,
1487811297.264948,0.247409,1.480472,0.489662,0.029854,0.060227,-0.005728,0.022090,-0.995924,-0.087455,0.012426,-0.006609,-0.008218,-12.937866,-35.650291,1.956573,,,,,,
1487811297.284937,0.252629,1.479192,0.484139,-0.025808,-0.066607,0.005365,0.022865,-0.995807,-0.088573,0.018899,-0.009823,-0.022694,-12.937866,-35.650291,1.956573,,,,,,
1487811297.304957,0.253417,1.478319,0.481346,-0.010606,-0.103632,0.003747,0.023152,-0.995727,-0.089396,0.010966,-0.008774,-0.002279,-13.164139,-35.875404,1.657379,,,,,,
1487811297.324946,0.257689,1.479560,0.475930,0.085897,-0.024228,0.000831,0.023219,-0.995841,-0.088101,0.003270,-0.010873,0.009915,-13.237839,-35.649727,2.031128,,,,,,
1487811297.344965,0.267659,1.482388,0.466217,0.122874,0.028118,-0.002959,0.023351,-0.996094,-0.085150,-0.000387,-0.008834,0.010778,-13.088364,-35.725395,1.731720,,,,,,
1487811297.364954,0.278346,1.484343,0.456107,0.075937,0.021317,0.016181,0.023725,-0.996265,-0.083022,0.012774,-0.009258,0.000320,-13.011703,-35.425072,2.030365,,,,,,
1487811297.384974,0.280324,1.484835,0.453413,0.006200,-0.072725,0.023607,0.023753,-0.996308,-0.082504,0.013844,0.003754,-0.002732,-13.011703,-35.425072,2.030365,,,,,,
1487811297.404963,0.277996,1.484773,0.454389,-0.023836,-0.050702,0.028546,0.023578,-0.996302,-0.082619,0.009152,0.002162,0.011360,-13.387405,-35.574394,2.105530,,,,,,
1487811297.424982,0.275313,1.485443,0.456667,0.030253,-0.006703,0.029178,0.023175,-0.996360,-0.082039,0.005359,0.008887,0.013558,-13.462830,-35.649391,2.030792,,,,,,
1487811297.444972,0.281893,1.487714,0.450834,0.109808,0.065143,0.008185,0.023085,-0.996551,-0.079711,0.003908,0.016860,0.019561,-13.388367,-35.724953,1.731262,,,,,,
1487811297.464991,0.297737,1.491025,0.436298,0.172856,0.057217,-0.006464,0.023377,-0.996820,-0.076181,0.006805,0.015207,0.011713,-13.087784,-35.649849,2.106354,,,,,,
1487811297.484980,0.314521,1.494815,0.419607,0.151044,-0.034301,0.025611,0.023483,-0.997115,-0.072185,0.005982,-0.001512,0.017314,-13.087784,-35.649849,2.106354,,,,,,
1487811297.505000,0.316309,1.497789,0.416541,0.006125,-0.061064,0.053287,0.022690,-0.997336,-0.069324,0.003693,0.009406,0.045551,-13.237381,-35.574501,2.180756,,,,,,
1487811297.524989,0.294530,1.498389,0.438950,-0.156023,0.094666,0.049734,0.021001,-0.997380,-0.069229,-0.018727,0.011647,0.050339,-13.386185,-35.349068,2.329407,,,,,,
1487811297.545008,0.274294,1.495031,0.462945,-0.187785,0.216491,0.028827,0.020503,-0.997131,-0.072863,-0.013301,0.010071,0.001330,-13.310364,-35.198952,2.478760,,,,,,
1487811297.564997,0.260669,1.491705,0.480057,-0.076150,0.121929,0.017598,0.020363,-0.996874,-0.076339,-0.000953,0.008623,-0.049149,-13.536774,-35.424522,1.879547,,,,,,
1487811297.585017,0.259918,1.491934,0.481528,0.048521,0.000953,0.000363,0.020247,-0.996892,-0.076135,-0.002089,0.010060,-0.041938,-13.536774,-35.424522,1.879547,,,,,,
1487811297.605006,0.265122,1.492959,0.476104,0.067823,-0.007354,-0.015466,0.020375,-0.996972,-0.075042,-0.005482,-0.001029,-0.012864,-13.310669,-35.199852,1.878754,,,,,,
1487811297.625025,0.270242,1.493655,0.471442,0.016156,0.049503,0.001763,0.020574,-0.997026,-0.074268,-0.002095,-0.015181,0.002170,-13.237198,-35.500069,1.805389,,,,,,
1487811297.645014,0.262354,1.493058,0.480743,-0.048105,0.072268,0.031144,0.020142,-0.996980,-0.075003,-0.003128,-0.007277,-0.010843,-13.461655,-35.424294,2.104645,,,,,,
1487811297.665034,0.253993,1.492277,0.489895,-0.035897,0.014003,0.014887,0.019709,-0.996919,-0.075922,-0.011439,0.010240,-0.022619,-13.537445,-35.574287,2.030304,,,,,,
1487811297.685023,0.250329,1.492192,0.493213,0.038089,-0.027781,-0.014197,0.019452,-0.996912,-0.076076,-0.014127,0.009363,-0.013158,-13.537445,-35.574287,2.030304,,,,,,
1487811297.705042,0.257838,1.493533,0.485270,0.081702,-0.012540,-0.011075,0.019682,-0.997017,-0.074635,-0.007444,0.000770,0.003910,-13.387482,-35.574623,1.955536,,,,,,
1487811297.725031,0.262242,1.495110,0.481082,0.036570,0.027394,0.005339,0.019603,-0.997137,-0.073029,-0.006099,-0.003168,0.016434,-13.161652,-35.424736,2.105103,,,,,,
1487811297.745051,0.252928,1.495057,0.490763,-0.050720,-0.005232,0.026867,0.018935,-0.997133,-0.073259,-0.006712,-0.004896,-0.000761,-13.612015,-35.498940,2.179810,,,,,,
1487811297.765040,0.232168,1.493914,0.510527,-0.072693,-0.058477,0.013681,0.017672,-0.997046,-0.074746,-0.020205,0.009360,0.002282,-13.761215,-35.348610,2.253815,,,,,,
1487811297.785059,0.221600,1.494035,0.520966,0.002432,0.038829,-0.016152,0.016855,-0.997055,-0.074811,-0.019220,0.010163,0.015729,-13.761215,-35.348610,2.253815,,,,,,
1487811297.805048,0.227702,1.495829,0.516893,0.109526,0.127887,-0.017005,0.016907,-0.997191,-0.072963,-0.005616,-0.000352,0.004299,-13.236710,-35.424736,2.030029,,,,,,
1487811297.825068,0.236291,1.497309,0.510019,0.080245,0.032052,0.017238,0.017188,-0.997301,-0.071381,0.005258,-0.008543,-0.016845,-13.461731,-35.424507,1.954651,,,,,,
1487811297.845057,0.226960,1.496484,0.518337,-0.089621,-0.075582,0.008586,0.016706,-0.997240,-0.072340,-0.004438,0.004351,-0.007250,-13.762787,-35.648827,2.105316,,,,,,
1487811297.865076,0.216588,1.493809,0.527856,-0.130546,-0.014344,-0.011534,0.016528,-0.997038,-0.075114,-0.002658,0.003553,-0.003591,-13.537109,-35.499397,1.954926,,,,,,
1487811297.885065,0.214105,1.492044,0.530914,-0.025413,0.051343,-0.018495,0.016716,-0.996901,-0.076875,-0.004478,-0.003435,-0.008086,-13.537109,-35.499397,1.954926,,,,,,
1487811297.905085,0.221854,1.492314,0.524719,0.053203,0.093431,-0.017764,0.017251,-0.996922,-0.076480,0.002173,-0.003032,-0.009305,-13.311371,-35.349739,1.954529,,,,,,
1487811297.925074,0.233863,1.492656,0.514553,0.055400,0.077510,-0.004764,0.018090,-0.996949,-0.075936,0.015739,-0.008880,-0.020195,-13.237915,-35.649956,1.881104,,,,,,
1487811297.945094,0.240200,1.492470,0.508126,0.042495,-0.056365,-0.007307,0.018615,-0.996934,-0.076000,0.010484,-0.001754,-0.024556,-13.312943,-35.649956,1.806030,,,,,,
1487811297.965083,0.240783,1.492779,0.505665,0.023542,-0.091564,-0.005826,0.018585,-0.996958,-0.075690,-0.002655,-0.003744,-0.001154,-13.612457,-35.574165,2.030212,,,,,,
1487811297.985102,0.245157,1.493531,0.500206,0.025224,-0.026789,-0.009883,0.018734,-0.997017,-0.074880,0.002628,-0.001274,0.012350,-13.612457,-35.574165,2.030212,,,,,,
1487811298.005091,0.251904,1.494668,0.493963,0.054536,0.045643,0.000966,0.018957,-0.997104,-0.073655,0.004420,-0.002194,0.007111,-13.012863,-35.650185,1.956451,,,,,,
1487811298.025111,0.255954,1.495703,0.490701,0.052472,0.033941,0.006446,0.018993,-0.997182,-0.072579,0.001514,0.003331,-0.002205,-13.686295,-35.348946,2.103943,,,,,,
1487811298.045100,0.257189,1.496467,0.489588,0.035747,-0.012914,0.005952,0.018889,-0.997239,-0.071818,-0.000365,0.007493,-0.000600,-13.387482,-35.574623,1.955536,,,,,,
1487811298.065119,0.259730,1.497488,0.486492,0.023042,-0.025768,0.009284,0.018810,-0.997314,-0.070786,0.003040,-0.005890,0.013672,-13.310913,-35.274513,2.104126,,,,,,
1487811298.085084,0.258398,1.497987,0.487848,-0.000692,0.009049,0.016215,0.018589,-0.997351,-0.070330,0.002270,0.000799,0.004442,-13.310913,-35.274513,2.104126,,,,,,
1487811298.105104,0.255181,1.497935,0.491300,-0.002829,0.012221,0.009768,0.018375,-0.997347,-0.070439,-0.001682,0.000536,-0.001720,-13.687561,-35.648277,2.555450,,,,,,
,,,,,,,,,,,,,,,,37.782420,-122.391528,11.963409,0.000000,297.070312,1487811298.002078
1487811298.125093,0.251305,1.497896,0.495239,-0.000646,-0.001577,0.025952,0.018112,-0.997344,-0.070548,0.001511,-0.004228,-0.000527,-13.612686,-35.648720,2.330566,,,,,,
1487811298.145112,0.238270,1.497557,0.508016,-0.034653,-0.017791,0.021816,0.017271,-0.997319,-0.071107,-0.012296,0.008229,-0.004760,-13.687683,-35.648613,2.330444,,,,,,
1487811298.165101,0.229244,1.496698,0.517024,-0.043340,0.014012,-0.005282,0.016823,-0.997256,-0.072094,-0.018089,0.012210,-0.001835,-13.537369,-35.574059,2.180298,,,,,,
1487811298.185121,0.224979,1.496343,0.522140,0.020322,0.065548,-0.020690,0.016594,-0.997230,-0.072510,-0.015633,0.011115,-0.008194,-13.537369,-35.574059,2.180298,,,,,,
1487811298.205110,0.228417,1.496747,0.520039,0.050159,0.058357,0.002961,0.016752,-0.997260,-0.072060,0.000826,-0.001977,-0.015388,-12.937912,-35.650414,1.881561,,,,,,
1487811298.225129,0.225721,1.496706,0.522807,0.023036,-0.036382,0.024403,0.016567,-0.997257,-0.072145,0.004658,-0.006116,-0.024443,-13.613220,-35.724174,2.030945,,,,,,
1487811298.245118,0.218763,1.496394,0.528378,0.012673,-0.073611,0.008872,0.016132,-0.997233,-0.072562,-0.004001,0.008769,-0.014123,-13.312408,-35.574501,2.105621,,,,,,
1487811298.265138,0.214879,1.497358,0.531553,0.069834,-0.008340,-0.003549,0.015645,-0.997305,-0.071685,-0.011174,0.011099,0.005996,-13.462708,-35.649055,2.255768,,,,,,
1487811298.285127,0.220204,1.499832,0.526666,0.107934,0.036586,-0.009360,0.015488,-0.997483,-0.069193,-0.008438,0.008912,0.013483,-13.462708,-35.649055,2.255768,,,,,,
1487811298.305146,0.225784,1.501613,0.521627,0.046192,0.015864,0.002473,0.015476,-0.997608,-0.067374,-0.001316,0.004184,0.007392,-13.762329,-35.573601,2.254944,,,,,,
1487811298.325135,0.224294,1.501615,0.522818,-0.032323,-0.038959,-0.002356,0.015375,-0.997608,-0.067395,-0.001871,0.005710,0.004422,-13.611481,-35.423500,2.479431,,,,,,
1487811298.345125,0.220647,1.500954,0.525278,-0.030022,-0.059102,-0.008477,0.015273,-0.997562,-0.068093,-0.004958,0.006275,0.005944,-13.385803,-35.274055,2.329041,,,,,,
1487811298.365144,0.222433,1.501419,0.523242,0.016348,0.026246,-0.024400,0.015293,-0.997594,-0.067614,-0.009555,0.009344,0.018145,-13.312042,-35.499504,2.105255,,,,,,
1487811298.385133,0.235422,1.502487,0.511707,0.032944,0.091142,-0.020952,0.015921,-0.997668,-0.066373,0.003732,0.000720,0.012312,-13.312042,-35.499504,2.105255,,,,,,
1487811298.405153,0.244525,1.502384,0.503554,0.001503,0.003787,0.003564,0.016549,-0.997661,-0.066325,0.016211,-0.004384,-0.015538,-13.761932,-35.498497,2.329590,,,,,,
1487811298.425142,0.241467,1.501270,0.505330,-0.047945,-0.099641,0.022913,0.016612,-0.997584,-0.067455,0.010686,0.003199,-0.012257,-13.685059,-35.123619,2.327820,,,,,,
1487811298.445161,0.230169,1.500186,0.514769,-0.060876,-0.078515,0.015127,0.016096,-0.997508,-0.068691,-0.002332,0.004405,0.007442,-13.312302,-35.574165,2.330627,,,,,,
1487811298.465150,0.224658,1.500140,0.519858,-0.021983,0.014215,-0.014777,0.015727,-0.997505,-0.068823,-0.012172,0.013694,0.022010,-13.761627,-35.423729,2.179230,,,,,,
1487811298.485170,0.230632,1.500489,0.514957,0.010708,0.070776,-0.023959,0.016059,-0.997529,-0.068390,-0.002692,0.006410,0.006424,-13.761627,-35.423729,2.179230,,,,,,
1487811298.505159,0.236411,1.500353,0.510317,-0.001954,0.036656,0.011642,0.016485,-0.997520,-0.068427,0.014032,-0.008736,-0.011407,-13.612122,-35.499275,1.954803,,,,,,
1487811298.525178,0.234294,1.499223,0.512306,-0.039885,-0.029497,0.011330,0.016602,-0.997440,-0.069558,0.010574,0.006046,-0.017707,-13.536621,-35.424065,2.179565,,,,,,
1487811298.545167,0.230364,1.497970,0.515395,-0.026944,-0.048490,0.006278,0.016614,-0.997349,-0.070840,0.002322,0.001881,-0.012565,-13.011490,-35.350517,1.729950,,,,,,
1487811298.565187,0.224571,1.497722,0.520388,0.010240,-0.026926,0.001840,0.016258,-0.997331,-0.071176,-0.009361,0.002840,-0.000891,-13.012161,-35.500298,1.880707,,,,,,
1487811298.585176,0.221444,1.498706,0.523622,0.042928,0.031766,-0.012691,0.015820,-0.997403,-0.070269,-0.018078,0.009289,0.010318,-13.012161,-35.500298,1.880707,,,,,,
1487811298.605195,0.227214,1.500202,0.518868,0.073719,0.052207,-0.012865,0.015889,-0.997509,-0.068723,-0.004262,0.001003,0.006437,-13.311707,-35.424629,2.029907,,,,,,
1487811298.625184,0.238548,1.501036,0.508086,0.034600,0.004090,-0.012349,0.016470,-0.997568,-0.067730,0.013254,0.000116,-0.006764,-13.536255,-35.349068,2.179169,,,,,,
1487811298.645204,0.242965,1.500384,0.502839,-0.059946,-0.054077,-0.000129,0.016926,-0.997522,-0.068288,0.010631,-0.005667,0.001042,-13.235474,-35.199394,2.253876,,,,,,
1487811298.665193,0.236855,1.499186,0.508384,-0.083746,-0.008641,0.003465,0.016789,-0.997437,-0.069551,-0.002674,-0.003524,0.014787,-13.235321,-35.198952,2.553894,,,,,,
1487811298.685212,0.232859,1.498441,0.512751,-0.031775,0.038540,-0.010869,0.016682,-0.997383,-0.070341,-0.007069,0.001580,0.006911,-13.235321,-35.198952,2.553894,,,,,,
1487811298.705201,0.232345,1.498220,0.514172,0.016228,0.040032,-0.017136,0.016697,-0.997368,-0.070564,-0.010334,0.006309,-0.009194,-13.461578,-35.424065,2.254639,,,,,,
1487811298.725221,0.234828,1.498604,0.512137,0.041887,0.027512,-0.008354,0.016783,-0.997395,-0.070150,-0.007429,0.005025,-0.004404,-13.612381,-35.573952,2.180206,,,,,,
1487811298.745210,0.237723,1.499988,0.510420,0.043695,0.074241,-0.010024,0.016661,-0.997494,-0.068759,-0.009581,0.008343,0.014865,-13.236145,-35.349174,2.404633,,,,,,
1487811298.765229,0.244590,1.500439,0.505008,-0.012717,0.066336,-0.029275,0.017024,-0.997526,-0.068207,-0.006236,0.008039,0.006180,-13.536209,-35.348946,2.254150,,,,,,
1487811298.785218,0.252905,1.499320,0.497882,-0.046784,0.066062,-0.051763,0.017870,-0.997447,-0.069144,-0.004350,0.009181,-0.002298,-13.536209,-35.348946,2.254150,,,,,,
1487811298.805238,0.269033,1.498046,0.482801,-0.004951,0.037778,-0.064068,0.019320,-0.997355,-0.070071,0.008619,0.000849,-0.018018,-13.536102,-35.348610,2.479156,,,,,,
1487811298.825227,0.284951,1.497944,0.467353,0.052701,0.017022,-0.034836,0.020461,-0.997347,-0.069852,0.005036,-0.015729,-0.014010,-13.237869,-35.649849,1.956116,,,,,,
1487811298.845247,0.298879,1.498594,0.453645,0.053692,0.019134,-0.016739,0.021241,-0.997395,-0.068941,0.010344,-0.012127,-0.004484,-13.011551,-35.424629,2.330353,,,,,,
1487811298.865236,0.307702,1.498870,0.445696,0.005344,0.060096,-0.001435,0.021766,-0.997414,-0.068489,0.011193,-0.012458,-0.004341,-13.386658,-35.424400,2.104767,,,,,,
1487811298.885255,0.311092,1.498130,0.443152,-0.006098,0.019656,-0.004143,0.022223,-0.997361,-0.069117,0.009683,-0.008453,-0.018911,-13.386658,-35.424400,2.104767,,,,,,
1487811298.905244,0.312840,1.497561,0.440999,0.025269,-0.040578,-0.007526,0.022519,-0.997319,-0.069619,0.001956,-0.005076,-0.021415,-13.312454,-35.574623,2.030640,,,,,,
1487811298.925264,0.316023,1.497855,0.436728,0.044575,-0.053140,-0.015836,0.022649,-0.997341,-0.069268,-0.002950,0.001049,-0.010963,-13.237015,-35.499504,2.180389,,,,,,
1487811298.945253,0.323268,1.498366,0.428953,0.023964,-0.006612,-0.014379,0.022989,-0.997378,-0.068619,0.001731,-0.006315,0.004578,-13.536285,-35.349174,2.104156,,,,,,
1487811298.965272,0.326637,1.498694,0.425593,0.018535,-0.004563,0.012236,0.023115,-0.997402,-0.068231,0.008318,-0.012852,-0.006095,-13.311295,-35.349510,2.104523,,,,,,
1487811298.985261,0.325329,1.498662,0.426024,0.026494,-0.070305,0.004593,0.023036,-0.997399,-0.068291,0.003271,0.003091,-0.014350,-13.311295,-35.349510,2.104523,,,,,,
1487811299.005281,0.326272,1.499251,0.423536,0.029695,-0.064956,-0.008265,0.022912,-0.997442,-0.067713,-0.005898,0.006368,0.006388,-13.311554,-35.424171,2.329895,,,,,,
1487811299.025270,0.333216,1.500647,0.416352,0.045047,0.027541,-0.011575,0.022926,-0.997541,-0.066237,-0.007164,0.002591,0.025938,-13.086288,-35.349846,2.104858,,,,,,
1487811299.045289,0.343786,1.502410,0.407199,0.056310,0.091328,-0.003853,0.023032,-0.997663,-0.064334,-0.001883,0.005887,0.020664,-13.162170,-35.574059,2.555878,,,,,,
1487811299.065278,0.350873,1.503273,0.401384,0.034351,0.027431,0.005462,0.023191,-0.997721,-0.063361,0.006014,0.001612,-0.006310,-13.160355,-35.199181,2.478973,,,,,,
1487811299.085284,0.352130,1.503089,0.399330,-0.006598,-0.064231,0.009750,0.023334,-0.997709,-0.063504,0.009655,0.000196,-0.003314,-13.160355,-35.199181,2.478973,,,,,,
1487811299.105273,0.349427,1.503156,0.401226,-0.019728,-0.015506,0.003731,0.023140,-0.997713,-0.063504,0.000100,0.001055,0.010419,-12.636139,-35.350075,2.405548,,,,,,
,,,,,,,,,,,,,,,,37.782411,-122.391549,11.955688,0.250000,237.304688,1487811299.002078
1487811299.125291,0.348243,1.503198,0.402856,-0.009401,0.036615,-0.007590,0.023050,-0.997716,-0.063492,-0.007517,0.002599,0.007889,-13.161179,-35.349403,2.329742,,,,,,
1487811299.145280,0.347877,1.502702,0.403943,-0.007192,0.028150,-0.014932,0.023196,-0.997682,-0.063966,-0.004458,0.004656,-0.012160,-13.086136,-35.349403,2.404877,,,,,,
1487811299.165300,0.350178,1.502092,0.401505,0.011341,-0.030080,-0.010910,0.023551,-0.997641,-0.064484,0.006600,-0.001093,-0.017532,-13.311218,-35.349281,2.254517,,,,,,
1487811299.185289,0.353871,1.502096,0.397017,0.019910,-0.038505,-0.004379,0.023788,-0.997641,-0.064393,0.001008,-0.001642,-0.004089,-13.311218,-35.349281,2.254517,,,,,,
1487811299.205308,0.356634,1.502458,0.393703,0.021941,-0.023623,-0.006702,0.023840,-0.997666,-0.063988,-0.002203,0.003632,0.001381,-13.160950,-35.348732,2.779755,,,,,,
1487811299.225297,0.357817,1.502607,0.392064,-0.006911,-0.019637,0.001694,0.023863,-0.997676,-0.063821,0.000291,0.003322,0.003930,-13.086060,-35.349174,2.554871,,,,,,
1487811299.245317,0.357169,1.502576,0.392160,-0.007905,-0.031329,0.007176,0.023833,-0.997674,-0.063866,0.002763,0.000970,0.005043,-13.086105,-35.349281,2.479858,,,,,,
1487811299.265306,0.352593,1.503012,0.396244,0.006971,-0.025898,0.015683,0.023390,-0.997704,-0.063565,-0.005095,0.003944,0.008756,-13.086731,-35.498940,2.705597,,,,,,
1487811299.285326,0.347518,1.503254,0.400644,-0.017513,-0.034610,0.022130,0.022985,-0.997720,-0.063456,0.000559,-0.002204,0.006053,-13.086731,-35.498940,2.705597,,,,,,
1487811299.305315,0.335478,1.502786,0.412051,-0.063416,-0.033963,0.034787,0.022373,-0.997688,-0.064170,0.003262,0.008049,0.008338,-12.635437,-35.200188,2.329773,,,,,,
1487811299.325335,0.321115,1.501634,0.425918,-0.070934,-0.019147,0.016440,0.021812,-0.997609,-0.065575,-0.003318,0.007955,0.002922,-13.534546,-35.048500,2.552673,,,,,,
1487811299.345324,0.310061,1.500942,0.436933,-0.026276,0.005675,0.003449,0.021296,-0.997561,-0.066469,-0.016551,0.006442,-0.003614,-13.612381,-35.573952,2.180206,,,,,,
1487811299.365344,0.310209,1.500913,0.436946,0.029237,0.009374,-0.023096,0.021315,-0.997559,-0.066494,-0.005278,0.015534,-0.007863,-13.086884,-35.499397,2.405609,,,,,,
1487811299.385332,0.321452,1.501177,0.425684,0.030399,-0.004417,-0.022912,0.021978,-0.997578,-0.066000,0.004359,0.003086,-0.003382,-13.086884,-35.499397,2.405609,,,,,,
1487811299.405351,0.326544,1.501001,0.420252,-0.027107,-0.028304,0.003893,0.022370,-0.997565,-0.066053,0.009628,-0.002664,-0.001528,-13.386292,-35.349403,2.104401,,,,,,
1487811299.425340,0.318064,1.499810,0.427913,-0.070725,-0.046738,0.009344,0.022181,-0.997482,-0.067369,-0.002115,0.004562,-0.001845,-13.535797,-35.273842,2.328796,,,,,,
1487811299.445360,0.309342,1.498745,0.435892,-0.044129,-0.027371,-0.014292,0.021916,-0.997405,-0.068572,-0.008274,0.012603,0.003249,-13.236038,-35.348839,2.629608,,,,,,
1487811299.465349,0.313744,1.498667,0.431516,0.027088,0.015739,-0.035982,0.022241,-0.997400,-0.068549,-0.005960,0.007288,0.000968,-13.086105,-35.349281,2.479858,,,,,,
1487811299.485368,0.329181,1.499067,0.416154,0.047546,-0.008494,-0.042005,0.023168,-0.997429,-0.067820,0.007273,-0.000695,-0.006506,-13.086105,-35.349281,2.479858,,,,,,
1487811299.505358,0.345890,1.499332,0.399173,0.015494,-0.009860,-0.020765,0.024208,-0.997447,-0.067174,0.015922,-0.008305,0.003149,-13.311432,-35.423836,2.554901,,,,,,
1487811299.525378,0.353363,1.498742,0.391620,-0.036876,-0.000780,-0.008254,0.024913,-0.997405,-0.067544,0.012150,-0.006104,-0.001350,-13.686554,-35.423622,2.329315,,,,,,
1487811299.545367,0.351872,1.497565,0.392905,-0.044268,-0.015719,0.001512,0.025217,-0.997320,-0.068683,0.007544,-0.005030,-0.008084,-13.386063,-35.348717,2.554413,,,,,,
1487811299.565386,0.348453,1.496978,0.396130,-0.016658,0.000444,0.002441,0.025182,-0.997277,-0.069319,-0.000707,0.002632,-0.000734,-13.236969,-35.499397,2.255371,,,,,,
1487811299.585374,0.347547,1.496565,0.397390,0.000296,0.017583,-0.004140,0.025259,-0.997246,-0.069729,0.002328,0.005272,-0.013126,-13.236969,-35.499397,2.255371,,,,,,
1487811299.605394,0.352246,1.496081,0.392614,0.009119,-0.023746,-0.003580,0.025753,-0.997210,-0.070062,0.011478,-0.006513,-0.012274,-13.536133,-35.348732,2.404175,,,,,,
1487811299.625383,0.354961,1.496411,0.389339,0.004754,-0.018498,0.017659,0.025829,-0.997235,-0.069684,0.008870,-0.005909,0.010754,-13.385239,-35.198494,2.703644,,,,,,
1487811299.645402,0.354275,1.497107,0.390226,0.003411,0.021834,0.016053,0.025540,-0.997286,-0.069050,0.000842,0.003390,0.017293,-12.936264,-35.349968,2.180084,,,,,,
1487811299.665391,0.352953,1.497255,0.392075,-0.011485,0.016394,0.018211,0.025398,-0.997297,-0.068946,0.004768,-0.005068,0.000434,-13.460510,-35.199181,2.178558,,,,,,
1487811299.685411,0.346155,1.497159,0.398552,-0.025042,-0.028318,0.025164,0.024961,-0.997290,-0.069207,0.000338,-0.000238,0.004967,-13.460510,-35.199181,2.178558,,,,,,
1487811299.705400,0.334691,1.497052,0.409762,-0.045489,-0.000887,0.021553,0.024201,-0.997282,-0.069589,-0.010011,0.003859,0.008966,-13.461258,-35.349174,2.179291,,,,,,
1487811299.725420,0.322782,1.496365,0.421904,-0.040241,0.019354,-0.000016,0.023588,-0.997231,-0.070522,-0.010633,0.009087,-0.004597,-13.237045,-35.499611,2.105377,,,,,,
1487811299.745409,0.320008,1.496044,0.425365,0.009667,0.049517,-0.000266,0.023493,-0.997207,-0.070891,-0.003291,-0.003113,-0.006273,-13.087402,-35.574837,2.105957,,,,,,
1487811299.765429,0.319828,1.496210,0.426580,0.046032,0.032846,0.003261,0.023428,-0.997220,-0.070738,-0.003210,0.000210,-0.018800,-13.087402,-35.574837,2.105957,,,,,,
1487811299.785418,0.321684,1.496674,0.424302,0.045587,-0.045696,-0.017023,0.023413,-0.997254,-0.070256,-0.005927,0.007188,-0.012828,-13.087402,-35.574837,2.105957,,,,,,
1487811299.805438,0.327092,1.497222,0.417958,0.019907,-0.034241,-0.017245,0.023617,-0.997295,-0.069611,-0.003720,-0.001073,0.010865,-12.935654,-35.274284,2.629700,,,,,,
1487811299.825427,0.332406,1.497888,0.412521,0.023882,0.007197,-0.017778,0.023770,-0.997343,-0.068856,-0.005383,0.002852,0.009439,-13.463058,-35.723946,2.331146,,,,,,
1487811299.845445,0.339207,1.498470,0.405804,0.012170,0.001779,-0.009206,0.024045,-0.997386,-0.068146,0.002475,-0.009252,0.007462,-13.237717,-35.649391,2.256104,,,,,,
1487811299.865434,0.341116,1.498270,0.403854,-0.021935,-0.007026,0.003603,0.024242,-0.997371,-0.068287,0.006337,-0.002354,0.000889,-13.236816,-35.498940,2.555389,,,,,,
1487811299.885454,0.340572,1.497989,0.404242,-0.002734,-0.007924,0.005796,0.024298,-0.997351,-0.068565,0.003915,-0.001245,0.001167,-13.236816,-35.498940,2.555389,,,,,,
1487811299.905443,0.343608,1.498461,0.401366,0.040837,0.014750,0.004548,0.024347,-0.997385,-0.068047,0.002310,0.000589,-0.000572,-13.311935,-35.499168,2.330261,,,,,,
1487811299.925462,0.348116,1.499357,0.397107,0.037678,0.008350,0.006754,0.024349,-0.997449,-0.067097,0.003864,-0.002352,0.002140,-12.936035,-35.349281,2.630066,,,,,,
1487811299.945451,0.347096,1.499154,0.397943,-0.028194,-0.029387,0.010258,0.024350,-0.997435,-0.067313,0.004474,0.001387,-0.005838,-13.236557,-35.424294,2.330017,,,,,,
1487811299.965472,0.339369,1.498392,0.404941,-0.048434,-0.035941,0.017751,0.024082,-0.997380,-0.068215,0.001278,-0.002376,0.003839,-13.537170,-35.573494,2.555298,,,,,,
1487811299.985461,0.332607,1.498172,0.411501,-0.007144,0.009012,0.013008,0.023692,-0.997364,-0.068584,-0.001872,0.006855,0.004497,-13.537170,-35.573494,2.555298,,,,,,
1487811300.005480,0.330610,1.499098,0.414209,0.046976,0.045576,0.019084,0.023255,-0.997431,-0.067757,-0.004303,0.004389,0.005791,-13.237228,-35.574059,2.480743,,,,,,
1487811300.025468,0.328850,1.500016,0.416786,0.021456,0.035801,0.017011,0.022840,-0.997496,-0.066931,-0.002240,0.010176,0.002402,-12.861633,-35.425072,2.180573,,,,,,
1487811300.045488,0.322867,1.499903,0.423020,-0.034735,-0.008207,0.009973,0.022475,-0.997488,-0.067174,-0.003706,0.008444,-0.001124,-13.161575,-35.424507,2.255096,,,,,,
1487811300.065477,0.313635,1.498557,0.431699,-0.066498,-0.041393,0.009255,0.022268,-0.997392,-0.068655,0.001033,0.000703,-0.009744,-13.311966,-35.499275,2.255249,,,,,,
1487811300.085501,0.303964,1.497543,0.440462,-0.030237,-0.037881,0.000788,0.021906,-0.997318,-0.069833,-0.010324,0.005726,-0.001609,-13.311966,-35.499275,2.255249,,,,,,
1487811300.105490,0.303107,1.497745,0.441325,0.029094,0.023165,-0.013708,0.021786,-0.997333,-0.069659,-0.005916,0.005664,0.001346,-13.236557,-35.424294,2.330017,,,,,,
,,,,,,,,,,,,,,,,37.782403,-122.391561,12.006256,0.450000,179.648438,1487811300.002079
1487811300.125510,0.311985,1.498336,0.433132,0.045014,0.034984,-0.017020,0.022222,-0.997376,-0.068902,0.001765,0.000061,-0.003990,-13.011429,-35.424294,2.555359,,,,,,
1487811300.145499,0.317674,1.498657,0.427449,0.012347,-0.022633,-0.011016,0.022514,-0.997399,-0.068471,0.000634,0.000558,-0.009135,-13.012253,-35.574501,2.406097,,,,,,
1487811300.165519,0.319647,1.498251,0.424808,-0.022796,-0.034628,-0.001365,0.022776,-0.997370,-0.068810,0.007513,-0.006353,0.002663,-13.313431,-35.799171,2.331757,,,,,,
1487811300.185508,0.317142,1.497817,0.426925,-0.034741,-0.009266,0.008926,0.022739,-0.997338,-0.069278,0.003674,-0.004157,0.005954,-13.313431,-35.799171,2.331757,,,,,,
1487811300.205527,0.314062,1.497396,0.429889,-0.013417,-0.008019,0.008964,0.022655,-0.997307,-0.069747,0.004002,-0.001258,-0.001618,-12.865005,-36.100060,2.183929,,,,,,
1487811300.225516,0.314451,1.497255,0.429360,0.014353,-0.008827,-0.002682,0.022725,-0.997297,-0.069872,0.002619,0.005552,-0.004408,-13.087631,-35.649391,2.406372,,,,,,
1487811300.245536,0.318996,1.497817,0.424753,0.030222,0.010422,-0.005025,0.022867,-0.997338,-0.069236,0.001364,0.002419,0.005897,-13.012299,-35.574623,2.331085,,,,,,
1487811300.265525,0.322386,1.498392,0.421960,0.003392,0.030350,0.003166,0.022920,-0.997380,-0.068614,-0.000596,-0.002345,0.006389,-12.937302,-35.574730,2.331207,,,,,,
1487811300.285544,0.320560,1.497876,0.423804,-0.027277,-0.012398,0.017500,0.022957,-0.997342,-0.069144,0.009346,-0.008502,-0.009652,-12.937302,-35.574730,2.331207,,,,,,
1487811300.305533,0.314963,1.497213,0.428912,-0.015462,-0.025038,0.018757,0.022774,-0.997294,-0.069900,0.008339,-0.003286,-0.006439,-13.086578,-35.424629,2.255219,,,,,,
1487811300.325553,0.312799,1.497407,0.430973,0.022776,0.002911,0.004630,0.022563,-0.997308,-0.069766,-0.001567,0.002634,0.000140,-13.162781,-35.649727,2.106232,,,,,,
1487811300.345542,0.316352,1.498344,0.427736,0.050366,0.026517,-0.004132,0.022520,-0.997377,-0.068797,-0.002638,0.002549,0.003443,-13.237686,-35.649284,2.331116,,,,,,
1487811300.365561,0.319518,1.499328,0.425266,0.025699,0.035833,0.019137,0.022430,-0.997447,-0.067793,0.003144,-0.007817,0.005568,-12.938065,-35.724724,2.331940,,,,,,
1487811300.385550,0.314308,1.499148,0.430946,-0.028489,0.005631,0.021511,0.022132,-0.997434,-0.068080,0.002099,0.002073,-0.006719,-12.938065,-35.724724,2.331940,,,,,,
1487811300.405570,0.303861,1.498108,0.440897,-0.038829,-0.036914,0.012449,0.021730,-0.997359,-0.069298,-0.002580,0.006393,-0.012779,-12.862305,-35.574852,2.331329,,,,,,
1487811300.425559,0.296897,1.497597,0.447223,-0.004797,-0.020685,0.004868,0.021396,-0.997322,-0.069934,-0.002230,0.006554,-0.003934,-13.086548,-35.424507,2.330231,,,,,,
1487811300.445578,0.296146,1.498249,0.448248,0.037519,0.032779,-0.007441,0.021153,-0.997370,-0.069329,-0.011739,0.005899,0.005165,-13.313065,-35.724174,2.331390,,,,,,
1487811300.465567,0.300250,1.498869,0.444914,0.026827,0.037999,-0.011802,0.021255,-0.997414,-0.068650,-0.003753,0.003777,-0.000686,-12.935989,-35.349174,2.705078,,,,,,
1487811300.485587,0.302286,1.498737,0.443054,0.006874,-0.012085,0.002669,0.021434,-0.997405,-0.068732,0.005284,-0.001558,-0.012811,-12.935989,-35.349174,2.705078,,,,,,
1487811300.505576,0.302397,1.498574,0.442183,0.008171,-0.047114,0.009528,0.021490,-0.997393,-0.068886,0.004877,0.000369,-0.004967,-13.162170,-35.574059,2.555878,,,,,,
1487811300.525565,0.300651,1.499357,0.443467,0.019598,-0.000294,0.000413,0.021138,-0.997449,-0.068177,-0.008367,0.005292,0.014695,-13.760834,-35.273613,2.253448,,,,,,
1487811300.545584,0.303941,1.500421,0.440813,0.024666,0.043290,-0.011872,0.021045,-0.997525,-0.067094,-0.008395,0.004971,0.015534,-13.311478,-35.423958,2.479889,,,,,,
1487811300.565573,0.311357,1.500909,0.434298,0.015048,0.044262,-0.006582,0.021393,-0.997559,-0.066473,0.006088,-0.001480,0.005987,-12.862335,-35.574959,2.256317,,,,,,
1487811300.585593,0.314491,1.501071,0.431756,-0.011502,0.018523,0.019269,0.021551,-0.997570,-0.066252,0.009272,-0.012043,0.002577,-12.862335,-35.574959,2.256317,,,,,,
1487811300.605582,0.306002,1.500542,0.440364,-0.046582,-0.001964,0.029035,0.021147,-0.997533,-0.066935,0.001482,-0.008814,-0.000265,-13.087372,-35.574730,2.180969,,,,,,
1487811300.625602,0.294507,1.499821,0.451869,-0.039142,0.007671,0.014002,0.020585,-0.997482,-0.067862,-0.005646,0.001495,-0.000558,-13.312332,-35.574287,2.255615,,,,,,
1487811300.645591,0.289163,1.499721,0.457673,0.009797,0.033601,-0.006453,0.020250,-0.997475,-0.068067,-0.011324,0.004052,0.002179,-13.011887,-35.499504,2.405731,,,,,,
1487811300.665610,0.292245,1.500231,0.455499,0.035273,0.047620,-0.000163,0.020313,-0.997511,-0.067518,-0.000294,-0.004671,-0.003787,-13.086182,-35.349510,2.329865,,,,,,
1487811300.685599,0.293431,1.500431,0.454988,0.017299,0.019849,0.011884,0.020336,-0.997525,-0.067302,0.004490,-0.004474,-0.011585,-13.086182,-35.349510,2.329865,,,,,,
1487811300.705619,0.289852,1.500357,0.458776,0.002423,0.006969,0.021608,0.020116,-0.997520,-0.067445,0.003093,-0.005791,-0.008086,-13.087296,-35.574501,2.330963,,,,,,
1487811300.725608,0.282304,1.500302,0.466225,0.001526,-0.016391,0.019784,0.019621,-0.997516,-0.067648,-0.002394,0.002887,-0.007837,-13.535797,-35.273842,2.328796,,,,,,
1487811300.745627,0.272775,1.499987,0.475010,-0.006824,-0.039810,0.012612,0.019060,-0.997494,-0.068134,-0.006136,0.005642,-0.009228,-13.311584,-35.424294,2.254883,,,,,,
1487811300.765616,0.264644,1.500133,0.482650,0.017487,-0.008807,0.010149,0.018468,-0.997504,-0.068147,-0.009953,0.004920,0.001084,-13.161652,-35.424736,2.105103,,,,,,
1487811300.785636,0.263537,1.501263,0.484225,0.057673,0.040381,0.007487,0.018099,-0.997584,-0.067079,-0.005770,0.004053,0.004503,-13.161652,-35.424736,2.105103,,,,,,
1487811300.805625,0.263412,1.502077,0.484713,0.032440,-0.011860,0.011309,0.017879,-0.997640,-0.066297,0.002125,0.005925,-0.009234,-13.611115,-35.348503,2.479065,,,,,,
1487811300.825644,0.256627,1.501996,0.490409,-0.009831,-0.066368,0.009785,0.017449,-0.997634,-0.066495,-0.006463,0.010284,-0.003116,-13.012222,-35.574394,2.481079,,,,,,
1487811300.845633,0.250802,1.502149,0.495142,-0.004654,-0.037643,-0.005503,0.017024,-0.997645,-0.066447,-0.010447,0.015497,0.012843,-13.310471,-35.199287,2.253754,,,,,,
1487811300.865653,0.252744,1.503408,0.493658,0.053338,0.059475,-0.011946,0.016838,-0.997730,-0.065198,-0.011589,0.009327,0.018033,-13.462372,-35.574165,2.180420,,,,,,
1487811300.885642,0.263159,1.504810,0.484675,0.070457,0.057514,-0.023597,0.017153,-0.997824,-0.063668,-0.003572,0.010809,-0.000602,-13.462372,-35.574165,2.180420,,,,,,
1487811300.905661,0.272584,1.505091,0.474972,0.015765,-0.052313,-0.016966,0.017677,-0.997842,-0.063234,0.008569,-0.000373,-0.011076,-13.760651,-35.273048,2.628448,,,,,,
1487811300.925650,0.276336,1.504604,0.469671,-0.032103,-0.079295,0.004573,0.018046,-0.997810,-0.063634,0.009023,-0.006523,0.003027,-13.460800,-35.273949,2.328918,,,,,,
1487811300.945670,0.275576,1.504316,0.469743,-0.033685,-0.004995,-0.000690,0.018076,-0.997791,-0.063925,0.001364,-0.000027,0.014883,-13.310364,-35.198952,2.478760,,,,,,
1487811300.965659,0.275401,1.504281,0.470534,0.004400,0.038863,-0.001163,0.018074,-0.997789,-0.063961,-0.001519,-0.001006,0.001141,-13.535004,-35.123726,2.403076,,,,,,
1487811300.985678,0.278598,1.504412,0.467424,0.026165,-0.016136,-0.013167,0.018243,-0.997797,-0.063778,-0.000344,0.004160,-0.007557,-13.535004,-35.123726,2.403076,,,,,,
1487811301.005667,0.282336,1.504690,0.463180,0.003828,-0.030147,0.000817,0.018404,-0.997816,-0.063443,0.002028,-0.004671,0.006070,-12.934982,-35.124519,2.478943,,,,,,
1487811301.025687,0.280359,1.505129,0.464708,-0.013380,-0.010130,0.003705,0.018157,-0.997845,-0.063058,-0.004119,0.000957,0.018594,-13.085831,-35.274620,2.254456,,,,,,
1487811301.045676,0.279120,1.505086,0.466400,-0.036130,0.038500,0.006193,0.018091,-0.997842,-0.063122,0.001852,-0.001182,0.014675,-13.236069,-35.348946,2.554626,,,,,,
1487811301.065696,0.277492,1.504242,0.468578,-0.037004,0.015144,-0.002037,0.018219,-0.997786,-0.063961,0.005951,0.001158,-0.008274,-13.535004,-35.123726,2.403076,,,,,,
1487811301.085670,0.276976,1.503218,0.469131,-0.029431,-0.002844,0.003547,0.018465,-0.997717,-0.064953,0.006361,-0.004327,-0.010227,-13.535004,-35.123726,2.403076,,,,,,
1487811301.105689,0.275128,1.502735,0.471089,-0.009291,0.012189,0.007666,0.018476,-0.997685,-0.065451,0.004397,-0.002498,-0.006281,-13.461182,-35.348946,2.329285,,,,,,
,,,,,,,,,,,,,,,,37.782396,-122.391568,12.044617,0.450000,181.054688,1487811301.002079
1487811301.125677,0.274808,1.502487,0.471702,0.008859,0.012356,-0.000819,0.018522,-0.997668,-0.065695,0.002352,0.001391,-0.010035,-13.310059,-35.124184,2.328400,,,,,,
1487811301.145697,0.276042,1.502335,0.470487,0.021814,-0.008759,-0.004770,0.018645,-0.997657,-0.065818,0.001558,0.003715,-0.013466,-13.535080,-35.123955,2.253052,,,,,,
1487811301.165686,0.278377,1.502559,0.467570,0.025201,-0.034205,-0.007622,0.018737,-0.997673,-0.065559,-0.000747,0.003303,-0.005897,-13.535751,-35.273720,2.403809,,,,,,
1487811301.185705,0.280262,1.502797,0.465323,-0.002699,-0.008965,-0.012299,0.018795,-0.997689,-0.065296,-0.004162,0.002389,0.004490,-13.535751,-35.273720,2.403809,,,,,,
1487811301.205694,0.282384,1.502743,0.463261,0.000343,0.011229,-0.008289,0.018948,-0.997685,-0.065307,-0.001629,0.000676,0.001221,-12.934937,-35.124397,2.553955,,,,,,
1487811301.225714,0.284798,1.502827,0.460999,0.013143,0.003891,0.008903,0.019082,-0.997691,-0.065182,0.005698,-0.000005,-0.003544,-12.860062,-35.124855,2.329071,,,,,,
1487811301.245703,0.285745,1.503135,0.459988,0.014283,-0.001396,-0.002757,0.019057,-0.997712,-0.064868,0.000947,0.007508,0.000399,-13.386185,-35.349068,2.329407,,,,,,
1487811301.265723,0.288424,1.503102,0.457286,-0.002766,-0.002603,-0.005992,0.019241,-0.997710,-0.064849,0.004990,0.001356,-0.001420,-13.460007,-35.123833,2.403168,,,,,,
1487811301.285712,0.291206,1.502986,0.454358,0.003662,-0.007859,-0.002709,0.019454,-0.997702,-0.064906,0.003388,0.001684,-0.000982,-13.460007,-35.123833,2.403168,,,,,,
1487811301.305732,0.294046,1.503213,0.451441,0.016404,0.000745,-0.003856,0.019573,-0.997717,-0.064633,0.000600,0.005285,0.004666,-13.310837,-35.274284,2.254120,,,,,,
1487811301.325721,0.300243,1.503698,0.445168,0.033566,-0.008651,-0.012217,0.019830,-0.997750,-0.064048,0.002525,0.004921,0.002723,-13.309937,-35.123833,2.553406,,,,,,
1487811301.345739,0.310258,1.504622,0.434864,0.042132,-0.010697,-0.015368,0.020189,-0.997811,-0.062969,0.004454,0.006341,0.010479,-13.534592,-35.048622,2.477661,,,,,,
1487811301.365728,0.321618,1.505807,0.423683,0.030207,0.013605,-0.005064,0.020529,-0.997889,-0.061614,0.003748,-0.000799,0.021483,-12.784973,-35.124733,2.479187,,,,,,
1487811301.385748,0.326680,1.506149,0.419004,-0.032783,0.021542,-0.001090,0.020731,-0.997911,-0.061186,0.003759,0.001421,0.012938,-12.784973,-35.124733,2.479187,,,,,,
1487811301.405737,0.322604,1.504899,0.423509,-0.082899,0.014719,0.010579,0.020877,-0.997830,-0.062453,0.009473,-0.002842,-0.002351,-13.086426,-35.424171,2.555237,,,,,,
1487811301.425756,0.316263,1.503359,0.429947,-0.043361,0.003382,0.011897,0.020958,-0.997727,-0.064044,0.007408,0.002823,-0.007184,-13.159668,-35.049400,2.328247,,,,,,
1487811301.445745,0.313832,1.503296,0.432884,0.036392,0.039117,0.005249,0.020822,-0.997723,-0.064155,-0.002267,0.010601,-0.005913,-13.460800,-35.273949,2.328918,,,,,,
1487811301.465765,0.321678,1.504572,0.425893,0.076949,0.045866,-0.019253,0.020922,-0.997808,-0.062781,-0.004397,0.009588,-0.001031,-13.311142,-35.349068,2.404541,,,,,,
1487811301.485754,0.336549,1.505291,0.411746,0.034480,0.021083,-0.025449,0.021616,-0.997855,-0.061786,0.005773,0.008338,-0.002408,-13.311142,-35.349068,2.404541,,,,,,
1487811301.505774,0.341938,1.505105,0.405987,-0.028077,-0.035742,-0.012078,0.022011,-0.997843,-0.061844,0.003105,0.001765,0.003372,-12.935440,-35.199730,2.329346,,,,,,
1487811301.525764,0.336651,1.504152,0.410434,-0.071796,-0.042506,0.000685,0.021998,-0.997780,-0.062857,0.001485,0.004875,0.003241,-12.934677,-35.049736,2.328583,,,,,,
1487811301.545783,0.327377,1.502610,0.419279,-0.078403,-0.019221,0.012087,0.021909,-0.997676,-0.064515,0.003222,-0.002736,-0.006164,-13.310806,-35.274178,2.329132,,,,,,
1487811301.565772,0.322181,1.501085,0.423977,-0.038821,-0.031606,0.000624,0.022055,-0.997571,-0.066071,-0.004309,0.004514,-0.012878,-13.086548,-35.424507,2.330231,,,,,,
1487811301.585791,0.325251,1.500786,0.420252,0.029484,-0.028867,-0.020551,0.022353,-0.997550,-0.066285,0.006822,0.012626,-0.005843,-13.086548,-35.424507,2.330231,,,,,,
1487811301.605780,0.330151,1.501437,0.414454,0.061671,-0.057250,-0.016872,0.022467,-0.997596,-0.065561,-0.010291,-0.008447,-0.013144,-12.937180,-35.574394,2.556213,,,,,,
1487811301.625799,0.329194,1.501897,0.413335,0.014074,-0.117123,-0.007674,0.022256,-0.997627,-0.065148,-0.003412,0.005623,-0.003807,-13.011032,-35.349174,2.629944,,,,,,
1487811301.645788,0.328434,1.502478,0.412671,-0.006831,-0.032387,0.003950,0.022020,-0.997667,-0.064616,-0.007341,-0.004240,0.021129,-13.085648,-35.274055,2.629456,,,,,,
1487811301.665808,0.331881,1.503467,0.410169,0.007197,0.089806,0.016228,0.021921,-0.997734,-0.063607,0.009405,-0.004997,0.027978,-13.085052,-35.124519,2.328735,,,,,,
1487811301.685797,0.327942,1.502604,0.415588,-0.056306,0.031950,-0.010922,0.021947,-0.997676,-0.064508,0.006007,0.010005,-0.012030,-13.085052,-35.124519,2.328735,,,,,,
1487811301.705817,0.326646,1.502007,0.416887,-0.014562,0.002566,0.014118,0.022055,-0.997635,-0.065101,-0.000998,-0.013367,0.007041,-12.936111,-35.349510,2.480072,,,,,,
1487811301.725806,0.319909,1.502269,0.423223,0.028420,-0.043774,0.020191,0.021534,-0.997653,-0.065000,-0.004429,0.004092,-0.008563,-13.310318,-35.198830,2.553772,,,,,,
1487811301.745826,0.312718,1.502906,0.429069,0.018978,-0.066149,0.021536,0.020870,-0.997696,-0.064548,-0.005871,-0.004852,0.001987,-13.312225,-35.573952,2.480621,,,,,,
1487811301.765815,0.303281,1.503568,0.437544,0.000591,-0.036599,0.037094,0.020063,-0.997741,-0.064112,-0.003019,-0.010148,0.013819,-12.786057,-35.349617,2.555298,,,,,,
1487811301.785833,0.293888,1.503847,0.446984,-0.023295,0.025835,0.027664,0.019379,-0.997760,-0.064031,0.004089,0.005725,0.006658,-12.786057,-35.349617,2.555298,,,,,,
1487811301.805822,0.285935,1.502503,0.454890,-0.026009,-0.044260,0.029641,0.019248,-0.997669,-0.065470,0.008661,-0.000470,-0.026541,-13.086060,-35.349174,2.554871,,,,,,
1487811301.825842,0.270515,1.502517,0.468256,0.061977,-0.123123,0.042674,0.018232,-0.997670,-0.065745,-0.007169,-0.007869,-0.017263,-13.312225,-35.573952,2.480621,,,,,,
1487811301.845831,0.261060,1.504752,0.474943,0.123991,-0.137426,0.027053,0.017034,-0.997820,-0.063760,-0.005514,0.000185,-0.002082,-13.236115,-35.349068,2.479614,,,,,,
1487811301.865850,0.262344,1.507217,0.471892,0.084997,-0.057091,0.032274,0.016478,-0.997979,-0.061363,0.002229,-0.003348,0.011528,-13.085571,-35.273842,2.779480,,,,,,
1487811301.885839,0.256838,1.508607,0.476837,0.029327,-0.025723,0.025296,0.015787,-0.998067,-0.060110,0.002569,0.009465,0.003592,-13.085571,-35.273842,2.779480,,,,,,
1487811301.905859,0.263844,1.507985,0.469024,-0.005587,-0.049348,-0.016105,0.016370,-0.998028,-0.060598,0.016970,0.006146,-0.016367,-13.234756,-35.123390,2.928497,,,,,,
1487811301.925848,0.281577,1.507768,0.451365,0.021486,0.042183,-0.019403,0.017502,-0.998014,-0.060506,0.015670,-0.006655,0.001516,-13.310577,-35.273506,2.779144,,,,,,
1487811301.945868,0.275663,1.508845,0.457464,0.069967,-0.046618,0.035255,0.016852,-0.998082,-0.059575,-0.021017,0.005375,-0.007991,-13.084595,-35.049294,2.478363,,,,,,
1487811301.965858,0.261721,1.510473,0.469549,0.053932,-0.063796,0.089836,0.015599,-0.998181,-0.058234,0.025341,0.058621,0.009863,-13.310211,-35.198494,2.778778,,,,,,
1487811301.985877,0.234350,1.511554,0.496148,0.005874,-0.041889,0.056348,0.013749,-0.998246,-0.057590,-0.039643,-0.034576,0.006778,-13.310211,-35.198494,2.778778,,,,,,
1487811302.005866,0.225822,1.511110,0.503410,-0.046227,-0.046548,0.012531,0.013356,-0.998219,-0.058137,-0.005483,0.019551,0.017670,-13.309708,-35.123161,3.003387,,,,,,
1487811302.025886,0.213554,1.510407,0.516252,-0.064141,0.063686,0.029151,0.012791,-0.998177,-0.058982,-0.008335,-0.000892,0.006477,-13.010010,-35.198387,3.154236,,,,,,
1487811302.045874,0.204921,1.509162,0.525706,-0.065787,0.006368,0.006442,0.012534,-0.998101,-0.060307,-0.004966,0.012811,-0.016994,-13.084930,-35.124168,2.553741,,,,,,
1487811302.065893,0.201443,1.507661,0.528534,-0.057901,-0.038117,-0.027071,0.012624,-0.998008,-0.061818,-0.002919,0.009360,-0.009975,-13.233704,-34.898613,2.777405,,,,,,
1487811302.085869,0.209764,1.506857,0.519514,-0.017359,-0.033502,-0.040882,0.013305,-0.997957,-0.062495,0.003602,0.004869,-0.003209,-13.233704,-34.898613,2.777405,,,,,,
1487811302.105889,0.221425,1.506584,0.507224,0.008211,-0.036481,-0.024776,0.014093,-0.997939,-0.062602,0.009818,-0.006486,-0.006917,-13.460953,-35.348274,2.779297,,,,,,
,,,,,,,,,,,,,,,,37.782393,-122.391584,12.065063,0.400000,181.054688,1487811302.002079
1487811302.125878,0.223975,1.506762,0.503824,0.009263,-0.044989,0.000938,0.014213,-0.997950,-0.062393,0.008462,-0.005178,-0.003586,-13.459183,-34.973610,2.552429,,,,,,
1487811302.145897,0.223354,1.507241,0.503624,-0.000441,-0.030212,0.002850,0.014068,-0.997981,-0.061935,-0.002594,0.002589,0.010956,-13.161057,-35.349068,2.554749,,,,,,
1487811302.165886,0.225305,1.507169,0.501280,-0.019669,-0.018686,-0.014424,0.014205,-0.997976,-0.061977,0.000444,0.003546,0.009639,-13.011322,-35.423958,2.780365,,,,,,
1487811302.185906,0.227748,1.506915,0.498639,-0.037926,-0.001863,-0.010431,0.014414,-0.997960,-0.062190,-0.001673,-0.004451,0.011164,-13.011322,-35.423958,2.780365,,,,,,
1487811302.205895,0.226256,1.506706,0.500437,-0.040374,0.034190,0.011483,0.014368,-0.997947,-0.062415,-0.001154,-0.012078,0.015417,-12.785446,-35.273949,3.004913,,,,,,
1487811302.225914,0.219625,1.506813,0.508704,-0.039813,0.095742,0.036262,0.013930,-0.997954,-0.062404,0.003907,-0.016222,0.016169,-12.634933,-35.124855,2.554413,,,,,,
1487811302.245903,0.212357,1.505727,0.517465,-0.061812,0.047793,0.018697,0.013705,-0.997884,-0.063563,0.004774,0.002995,-0.009252,-13.085205,-35.198830,2.779114,,,,,,
1487811302.265923,0.202569,1.504129,0.527373,-0.048589,-0.013669,0.022747,0.013403,-0.997779,-0.065256,-0.000356,-0.003671,-0.012228,-13.460205,-35.198280,2.778564,,,,,,
1487811302.285912,0.189000,1.503493,0.540785,-0.020993,0.001429,0.030098,0.012635,-0.997736,-0.066055,-0.003587,-0.005133,-0.001953,-13.460205,-35.198280,2.778564,,,,,,
1487811302.305931,0.177057,1.503453,0.553638,-0.023624,0.073606,0.021679,0.011853,-0.997733,-0.066241,-0.010876,0.001151,0.007708,-13.461060,-35.348610,2.554291,,,,,,
1487811302.325920,0.165437,1.503074,0.566688,-0.002101,0.049389,0.015680,0.011144,-0.997708,-0.066747,-0.010198,0.002209,-0.013148,-13.310989,-35.348610,2.704529,,,,,,
1487811302.345940,0.160247,1.502972,0.572298,0.038733,0.013674,-0.002916,0.010814,-0.997701,-0.066904,-0.008434,0.006551,-0.013067,-13.684830,-35.122948,2.777832,,,,,,
1487811302.365929,0.159769,1.503833,0.573019,0.050515,0.012735,-0.018853,0.010645,-0.997759,-0.066061,-0.009882,0.005266,-0.004114,-13.535233,-35.198280,2.703430,,,,,,
1487811302.385949,0.164071,1.504050,0.569083,-0.011451,0.022802,-0.010626,0.010894,-0.997773,-0.065801,0.000871,-0.004165,0.002080,-13.535233,-35.198280,2.703430,,,,,,
1487811302.405938,0.162315,1.502969,0.571279,-0.070137,0.019090,0.004185,0.010953,-0.997701,-0.066884,0.000751,-0.007106,-0.003703,-13.384933,-35.123726,2.553284,,,,,,
1487811302.425957,0.157915,1.501531,0.575910,-0.045511,0.005505,0.004436,0.010884,-0.997602,-0.068349,-0.001561,-0.001635,-0.005672,-13.233810,-34.898949,2.552399,,,,,,
1487811302.445946,0.156442,1.501436,0.577584,0.030244,0.007243,-0.008163,0.010798,-0.997596,-0.068458,-0.004069,0.001578,-0.001747,-13.235886,-35.348381,2.929626,,,,,,
1487811302.465966,0.161853,1.502145,0.572252,0.047405,0.004235,-0.033663,0.011054,-0.997644,-0.067701,-0.008674,0.006113,-0.001528,-13.609680,-35.048729,2.327576,,,,,,
1487811302.485955,0.172619,1.502720,0.561701,0.014164,0.019847,-0.012639,0.011684,-0.997684,-0.067012,0.006444,-0.006741,0.004162,-13.609680,-35.048729,2.327576,,,,,,
1487811302.505974,0.175690,1.502565,0.558800,-0.024156,-0.002813,0.016337,0.011917,-0.997673,-0.067129,0.010865,-0.010963,-0.001566,-13.159927,-35.124062,2.553619,,,,,,
1487811302.525963,0.171203,1.501841,0.562843,-0.021776,-0.037828,0.017867,0.011738,-0.997624,-0.067893,0.003612,-0.004406,-0.008614,-13.310608,-35.273613,2.704132,,,,,,
1487811302.545983,0.167627,1.501954,0.565605,0.029418,-0.030996,0.002991,0.011477,-0.997631,-0.067824,-0.001482,0.002529,0.002456,-13.760727,-35.273277,2.478455,,,,,,
1487811302.565972,0.169489,1.503673,0.563945,0.081219,0.036343,-0.002014,0.011314,-0.997748,-0.066112,-0.007102,0.003150,0.014751,-13.009262,-34.974510,2.403107,,,,,,
1487811302.585991,0.174585,1.505904,0.560125,0.077745,0.072399,0.006032,0.011264,-0.997895,-0.063861,0.000668,0.003510,0.012363,-13.009262,-34.974510,2.403107,,,,,,
1487811302.605980,0.177111,1.506631,0.558288,0.004676,-0.000431,0.006782,0.011297,-0.997942,-0.063118,0.007105,0.006533,-0.003487,-13.310318,-35.198830,2.553772,,,,,,
1487811302.626000,0.177247,1.505797,0.557336,-0.055714,-0.055099,0.003058,0.011453,-0.997888,-0.063936,0.005912,0.005396,0.002550,-13.085281,-35.199059,2.629089,,,,,,
1487811302.645989,0.176536,1.504914,0.557239,-0.051577,-0.028504,-0.016483,0.011562,-0.997831,-0.064811,0.000523,0.009320,0.008613,-13.611328,-35.423058,2.779449,,,,,,
1487811302.666008,0.181252,1.504424,0.552769,-0.022197,0.039696,-0.018370,0.011956,-0.997798,-0.065238,-0.000618,0.003566,0.008276,-13.085007,-35.124397,2.403748,,,,,,
1487811302.685997,0.187565,1.504279,0.547892,0.002026,0.078114,-0.008149,0.012394,-0.997789,-0.065303,0.003689,0.004624,-0.002828,-13.085007,-35.124397,2.403748,,,,,,
1487811302.706017,0.192222,1.503743,0.544084,0.007779,0.014455,0.002298,0.012800,-0.997753,-0.065769,0.013140,0.005962,-0.019101,-13.460983,-35.348381,2.704285,,,,,,
1487811302.726006,0.195615,1.503373,0.540102,0.014606,-0.046000,0.002038,0.013095,-0.997728,-0.066088,0.009137,0.005800,-0.013777,-13.310684,-35.273842,2.554138,,,,,,
1487811302.745995,0.198357,1.503229,0.536459,-0.010985,-0.040901,-0.014105,0.013305,-0.997718,-0.066192,-0.000457,0.009910,0.001175,-13.759933,-35.123161,2.552734,,,,,,
1487811302.766014,0.200189,1.502928,0.534166,-0.024019,-0.002782,-0.027438,0.013486,-0.997698,-0.066462,-0.008816,0.008745,0.008540,-13.762756,-35.648720,2.180328,,,,,,
1487811302.786003,0.206988,1.502964,0.528253,-0.017077,0.069465,-0.024105,0.013930,-0.997700,-0.066333,-0.001967,0.001225,0.012866,-13.762756,-35.648720,2.180328,,,,,,
1487811302.806023,0.213867,1.502657,0.522605,-0.007338,0.040863,-0.001307,0.014451,-0.997679,-0.066536,0.008895,-0.007325,-0.006050,-13.235443,-35.199287,2.328888,,,,,,
1487811302.826012,0.210462,1.501834,0.526011,-0.044296,-0.017864,0.014292,0.014396,-0.997623,-0.067387,0.003121,-0.008328,-0.006175,-13.534698,-35.122826,3.003052,,,,,,
1487811302.846032,0.205994,1.500557,0.530098,-0.061320,-0.014807,-0.008196,0.014355,-0.997534,-0.068698,-0.002545,0.003119,-0.002286,-13.086182,-35.349510,2.329865,,,,,,
1487811302.866021,0.207133,1.499829,0.528852,-0.000613,-0.000470,-0.013544,0.014583,-0.997483,-0.069392,0.000310,-0.001861,-0.006810,-13.236221,-35.349403,2.254608,,,,,,
