timestamp(unix),attitude_roll(radians),attitude_pitch(radians),attitude_yaw(radians),rotation_rate_x(radians/s),rotation_rate_y(radians/s),rotation_rate_z(radians/s),gravity_x(G),gravity_y(G),gravity_z(G),user_acc_x(G),user_acc_y(G),user_acc_z(G),magnetic_field_x(microteslas),magnetic_field_y(microteslas),magnetic_field_z(microteslas),latitude(degree),longitude(degree),altitude(meter),speed(m/s),course(degree),timestamp(unix)
1484011325.799913,-0.001899,0.047900,-1.222803,-0.004690,0.000230,0.002033,-0.001897,-0.047882,-0.998851,0.000432,0.001068,0.007167,-7.637192,72.123413,-39.955261,,,,,,
1484011325.819932,-0.001861,0.047941,-1.222758,0.000623,0.001343,0.003086,-0.001859,-0.047922,-0.998849,0.000653,0.000773,0.005197,-7.637192,72.123413,-39.955261,,,,,,
,,,,,,,,,,,,,,,,33.759177,-118.389184,321.610077,-1.000000,-1.000000,1484011325.783731
,,,,,,,,,,,,,,,,33.759177,-118.389184,321.610077,-1.000000,-1.000000,1484011319.949889
1484011325.839921,-0.001849,0.047939,-1.222729,0.002771,0.000302,0.000973,-0.001846,-0.047921,-0.998849,0.001282,0.001305,0.004419,-7.335831,72.348694,-39.505920,,,,,,
1484011325.859941,-0.001886,0.047900,-1.222698,-0.001488,-0.000797,0.000975,-0.001884,-0.047882,-0.998851,-0.000405,0.000793,0.006359,-7.857040,73.099609,-39.435425,,,,,,
1484011325.879930,-0.001910,0.047906,-1.222667,-0.001494,-0.000799,0.003108,-0.001908,-0.047887,-0.998851,-0.000167,0.000524,0.005305,-7.785080,72.499329,-39.507324,,,,,,
1484011325.899935,-0.001909,0.047890,-1.222643,0.000648,-0.000777,-0.000086,-0.001907,-0.047871,-0.998852,0.000320,0.000859,0.005855,-7.859787,72.500366,-38.907410,,,,,,
1484011325.919924,-0.001871,0.047857,-1.222620,-0.001504,0.001326,0.000947,-0.001869,-0.047839,-0.998853,0.000816,0.000903,0.005628,-7.859787,72.500366,-38.907410,,,,,,
1484011325.939943,-0.001904,0.047875,-1.222572,0.000639,-0.000780,0.003114,-0.001902,-0.047856,-0.998852,-0.000646,0.000356,0.007214,-8.606857,73.027344,-38.311279,,,,,,
1484011325.959963,-0.001911,0.047892,-1.222537,0.001719,-0.001830,0.000998,-0.001909,-0.047874,-0.998852,0.000826,0.000313,0.005321,-8.308014,72.875671,-39.135010,,,,,,
1484011325.979952,-0.001920,0.047855,-1.222502,0.000641,-0.001835,0.002047,-0.001918,-0.047837,-0.998853,0.000804,0.000794,0.005994,-8.006927,73.026245,-38.460327,,,,,,
1484011325.999971,-0.001935,0.047814,-1.222488,-0.000437,0.000280,0.000950,-0.001933,-0.047795,-0.998855,-0.000921,0.000814,0.007797,-7.560272,72.424561,-39.131653,,,,,,
1484011326.019960,-0.001961,0.047832,-1.222468,0.000637,-0.000773,0.000967,-0.001959,-0.047814,-0.998854,-0.001444,0.000375,0.003768,-7.560272,72.424561,-39.131653,,,,,,
1484011326.039980,-0.001951,0.047815,-1.222444,0.001703,-0.000763,0.000970,-0.001949,-0.047797,-0.998855,0.000545,0.002234,0.004776,-8.083282,72.800720,-38.909241,,,,,,
1484011326.059969,-0.001942,0.047838,-1.222415,0.001703,-0.000763,0.000970,-0.001939,-0.047820,-0.998854,0.000246,-0.000062,0.007857,-7.930069,73.474976,-39.212463,,,,,,
1484011326.079988,-0.001949,0.047840,-1.222390,0.000632,0.000290,-0.000114,-0.001947,-0.047822,-0.998854,-0.000220,0.000367,0.006544,-8.084061,72.650574,-38.983521,,,,,,
1484011326.099977,-0.001899,0.047829,-1.222362,0.000618,0.001350,0.002005,-0.001897,-0.047811,-0.998855,0.001485,0.001103,0.004424,-7.482788,72.875061,-38.683777,,,,,,
1484011326.119997,-0.001866,0.047825,-1.222328,0.000626,0.000289,0.002019,-0.001864,-0.047807,-0.998855,0.000476,0.001130,0.005492,-7.482788,72.875061,-38.683777,,,,,,
1484011326.139986,-0.001903,0.047822,-1.222314,0.001694,-0.000757,0.000954,-0.001901,-0.047804,-0.998855,0.000833,0.000304,0.007079,-8.458160,72.801575,-38.684875,,,,,,
1484011326.160005,-0.001888,0.047816,-1.222296,0.001687,0.000304,0.000940,-0.001885,-0.047798,-0.998855,0.001000,0.000954,0.007049,-7.782257,73.024902,-39.134949,,,,,,
1484011326.179994,-0.001952,0.047829,-1.222258,-0.000447,0.000286,0.000934,-0.001950,-0.047811,-0.998855,-0.001834,0.000356,0.004699,-7.782074,73.025452,-38.759949,,,,,,
1484011326.200014,-0.001972,0.047839,-1.222234,0.001691,-0.000758,0.002020,-0.001970,-0.047821,-0.998854,0.001130,0.000321,0.008787,-8.308838,72.651611,-38.533875,,,,,,
1484011326.220033,-0.001972,0.047838,-1.222216,0.000643,-0.002890,0.000979,-0.001970,-0.047819,-0.998854,-0.000930,0.000746,0.004713,-8.308838,72.651611,-38.533875,,,,,,
1484011326.240022,-0.002013,0.047829,-1.222185,0.000614,0.000293,0.003070,-0.002011,-0.047811,-0.998854,0.000211,0.001135,0.004241,-8.230698,73.325806,-38.987122,,,,,,
1484011326.260042,-0.002021,0.047821,-1.222171,0.000634,-0.000764,-0.001182,-0.002019,-0.047802,-0.998855,-0.000529,0.001050,0.006469,-7.484787,72.573608,-39.657227,,,,,,
1484011326.280031,-0.001985,0.047830,-1.222148,0.001697,-0.000756,-0.000113,-0.001983,-0.047812,-0.998854,0.000228,0.000525,0.006346,-7.336502,72.198853,-39.355164,,,,,,
1484011326.300050,-0.001964,0.047813,-1.222104,0.000607,0.000299,0.001987,-0.001961,-0.047795,-0.998855,-0.000327,0.001119,0.005539,-7.635910,72.348877,-39.656311,,,,,,
1484011326.320039,-0.002007,0.047822,-1.222074,0.001685,-0.000752,0.000937,-0.002005,-0.047804,-0.998855,-0.000375,0.000303,0.006255,-7.635910,72.348877,-39.656311,,,,,,
1484011326.340059,-0.002006,0.047824,-1.222045,-0.000451,-0.000772,0.001998,-0.002003,-0.047805,-0.998855,0.000905,0.000122,0.006637,-7.709106,72.649902,-39.057983,,,,,,
1484011326.360048,-0.002015,0.047819,-1.222027,0.000621,-0.000760,-0.000132,-0.002013,-0.047801,-0.998855,0.000319,0.000971,0.003951,-7.411392,72.273193,-39.880676,,,,,,
1484011326.380068,-0.002043,0.047832,-1.222007,0.001677,0.000310,0.000923,-0.002041,-0.047814,-0.998854,-0.000691,0.000893,0.006438,-7.188019,71.972534,-40.103821,,,,,,
1484011326.400057,-0.002055,0.047844,-1.221978,0.001693,-0.001813,0.000951,-0.002052,-0.047825,-0.998854,-0.001030,-0.000102,0.007399,-7.934296,72.649658,-39.433289,,,,,,
1484011326.420076,-0.002044,0.047833,-1.221955,0.000615,-0.000762,0.002001,-0.002042,-0.047815,-0.998854,0.001630,0.001108,0.003478,-7.934296,72.649658,-39.433289,,,,,,
1484011326.440065,-0.002035,0.047836,-1.221915,0.001677,0.000310,0.000923,-0.002033,-0.047818,-0.998854,-0.000073,0.001202,0.006071,-7.559448,72.648621,-39.732727,,,,,,
1484011326.460085,-0.002053,0.047871,-1.221896,0.002731,0.001387,-0.000172,-0.002050,-0.047853,-0.998852,-0.000666,0.000657,0.006970,-7.335266,72.498108,-39.881653,,,,,,
1484011326.480074,-0.002041,0.047871,-1.221874,-0.000467,0.000295,0.001967,-0.002039,-0.047853,-0.998852,0.000421,0.000749,0.007321,-6.886749,72.197510,-39.804504,,,,,,
1484011326.500093,-0.002027,0.047872,-1.221840,0.001669,0.000315,0.000906,-0.002025,-0.047853,-0.998852,-0.001012,0.000231,0.005459,-7.408905,72.723877,-39.432922,,,,,,
1484011326.520113,-0.002038,0.047860,-1.221800,0.000607,-0.000757,0.001984,-0.002036,-0.047842,-0.998853,-0.000925,0.000448,0.006879,-7.408905,72.723877,-39.432922,,,,,,
1484011326.540102,-0.002044,0.047850,-1.221782,-0.000467,0.000296,0.001967,-0.002041,-0.047832,-0.998853,-0.000522,0.000102,0.005384,-7.636017,72.274658,-39.130981,,,,,,
1484011326.560121,-0.002021,0.047869,-1.221754,0.001661,0.001377,0.000892,-0.002018,-0.047851,-0.998852,-0.000118,0.000197,0.006787,-7.111893,72.197388,-40.104797,,,,,,
1484011326.580110,-0.002006,0.047890,-1.221726,0.000607,-0.000756,0.001984,-0.002003,-0.047872,-0.998851,0.001301,0.000432,0.004894,-7.861069,72.274902,-39.206360,,,,,,
1484011326.600130,-0.001976,0.047874,-1.221693,0.000603,0.000306,0.000903,-0.001974,-0.047856,-0.998852,-0.000803,0.000935,0.005902,-8.010574,72.424316,-39.732300,,,,,,
1484011326.620119,-0.001960,0.047863,-1.221666,0.001659,0.000319,0.001954,-0.001958,-0.047845,-0.998853,0.000066,0.000390,0.006620,-8.010574,72.424316,-39.732300,,,,,,
1484011326.640138,-0.001966,0.047880,-1.221648,0.000596,0.000311,0.000885,-0.001964,-0.047861,-0.998852,-0.000218,0.000056,0.006909,-7.185760,72.348633,-39.355652,,,,,,
1484011326.660127,-0.001970,0.047882,-1.221619,0.001663,0.000321,0.000888,-0.001968,-0.047864,-0.998852,-0.000901,-0.000125,0.006024,-7.638016,71.973206,-40.104492,,,,,,
1484011326.680147,-0.001965,0.047864,-1.221597,0.000596,0.000311,0.000885,-0.001962,-0.047846,-0.998853,0.001749,0.001429,0.005628,-8.011612,72.199524,-39.581177,,,,,,
1484011326.700136,-0.001925,0.047841,-1.221581,0.000596,0.000312,0.000885,-0.001922,-0.047823,-0.998854,0.001144,0.001802,0.004484,-7.559418,72.648743,-39.657715,,,,,,
1484011326.720155,-0.001879,0.047840,-1.221555,0.000596,0.000312,0.000885,-0.001877,-0.047821,-0.998854,0.002243,0.000138,0.006300,-7.559418,72.648743,-39.657715,,,,,,
1484011326.740144,-0.001845,0.047818,-1.221533,-0.001537,0.000294,0.000879,-0.001843,-0.047799,-0.998855,-0.000354,0.001367,0.005066,-7.560654,72.423462,-39.881653,,,,,,
1484011326.760164,-0.001848,0.047800,-1.221505,-0.001530,-0.000768,0.000893,-0.001845,-0.047782,-0.998856,-0.000199,0.000709,0.007187,-7.786987,72.124207,-39.580505,,,,,,
1484011326.780184,-0.001888,0.047811,-1.221476,-0.001531,-0.001826,0.001955,-0.001886,-0.047793,-0.998856,-0.000296,0.000048,0.004806,-7.860794,72.349609,-39.431702,,,,,,
1484011326.800173,-0.001915,0.047809,-1.221436,0.001654,0.000325,0.001936,-0.001912,-0.047791,-0.998856,-0.001460,0.000916,0.007309,-7.636444,72.273438,-39.955994,,,,,,
1484011326.820192,-0.001902,0.047826,-1.221409,0.002720,0.000334,0.001939,-0.001900,-0.047808,-0.998855,-0.000038,0.000597,0.007018,-7.636444,72.273438,-39.955994,,,,,,
1484011326.840181,-0.001875,0.047859,-1.221361,0.001661,-0.000736,0.001950,-0.001872,-0.047841,-0.998853,0.000697,-0.000117,0.005277,-7.784515,72.648804,-39.883118,,,,,,
1484011326.860201,-0.001870,0.047876,-1.221334,-0.000472,-0.000755,0.001944,-0.001868,-0.047858,-0.998852,0.000586,0.001380,0.007291,-7.861313,72.200256,-38.980957,,,,,,
1484011326.880190,-0.001860,0.047852,-1.221317,0.001657,0.000327,0.000869,-0.001858,-0.047834,-0.998854,0.001065,0.000806,0.004743,-7.334488,72.648193,-39.807434,,,,,,
1484011326.900213,-0.001853,0.047812,-1.221295,0.000582,0.001379,0.000852,-0.001851,-0.047794,-0.998855,-0.000819,0.001041,0.005829,-7.485092,72.498840,-39.506897,,,,,,
1484011326.920202,-0.001871,0.047809,-1.221282,0.001664,-0.000735,0.000883,-0.001869,-0.047791,-0.998856,-0.000786,0.001755,0.005157,-7.485092,72.498840,-39.506897,,,,,,
1484011326.940222,-0.001860,0.047791,-1.221261,0.000584,0.000321,0.000847,-0.001858,-0.047773,-0.998856,0.000469,0.001615,0.006165,-7.636658,72.198853,-39.655579,,,,,,
1484011326.960211,-0.001853,0.047811,-1.221238,-0.000478,-0.000750,0.001925,-0.001851,-0.047793,-0.998856,-0.000148,0.000445,0.004211,-7.860840,72.349487,-39.506714,,,,,,
1484011326.980230,-0.001871,0.047834,-1.221209,0.000581,0.000320,0.001913,-0.001869,-0.047816,-0.998854,-0.001076,-0.000112,0.005873,-7.408981,72.649719,-38.832520,,,,,,
1484011327.000219,-0.001850,0.047830,-1.221172,0.001647,0.000330,0.001916,-0.001848,-0.047812,-0.998855,0.001451,0.000800,0.005935,-7.712143,72.123657,-39.880371,,,,,,
1484011327.020239,-0.001851,0.047832,-1.221150,0.000581,0.000321,0.001913,-0.001849,-0.047814,-0.998855,0.000018,0.000816,0.004760,-7.712143,72.123657,-39.880371,,,,,,
1484011327.040258,-0.001883,0.047840,-1.221121,0.000588,-0.000741,0.001927,-0.001881,-0.047821,-0.998854,-0.000561,0.000611,0.006026,-7.337936,71.973022,-39.954041,,,,,,
1484011327.060247,-0.001842,0.047835,-1.221091,0.000581,0.000321,0.001913,-0.001840,-0.047817,-0.998854,0.002587,0.000682,0.004805,-7.785599,72.350037,-39.056580,,,,,,
1484011327.080267,-0.001880,0.047815,-1.221061,0.000581,0.000321,0.001913,-0.001878,-0.047797,-0.998855,-0.001097,0.000510,0.003250,-7.560349,72.424316,-39.281616,,,,,,
1484011327.100256,-0.001885,0.047820,-1.221034,0.000578,0.000326,0.000827,-0.001883,-0.047802,-0.998855,0.000067,0.000683,0.004699,-7.110275,72.497742,-39.881348,,,,,,
1484011327.120275,-0.001887,0.047827,-1.221017,0.001644,0.000335,0.000830,-0.001884,-0.047809,-0.998855,-0.000755,0.000003,0.006454,-7.110275,72.497742,-39.881348,,,,,,
1484011327.140264,-0.001897,0.047843,-1.220994,0.001652,-0.000726,0.000844,-0.001895,-0.047825,-0.998854,0.000400,0.001011,0.006560,-7.711426,72.199646,-39.205750,,,,,,
1484011327.160284,-0.001880,0.047866,-1.220973,0.000575,0.000325,0.001894,-0.001877,-0.047847,-0.998853,0.000565,0.000057,0.005445,-7.558517,72.799194,-39.358459,,,,,,
1484011327.180273,-0.001883,0.047923,-1.220941,0.001641,0.000334,0.001897,-0.001880,-0.047904,-0.998850,-0.001003,-0.000618,0.006708,-7.785156,72.499084,-39.657288,,,,,,
1484011327.200293,-0.001892,0.047930,-1.220908,0.001660,-0.001788,0.000858,-0.001890,-0.047912,-0.998850,-0.000429,0.000823,0.004831,-7.487640,71.974060,-39.354248,,,,,,
1484011327.220282,-0.001899,0.047919,-1.220881,0.000572,0.000324,0.002960,-0.001897,-0.047901,-0.998850,-0.000361,0.001010,0.005656,-7.487640,71.974060,-39.354248,,,,,,
1484011327.240301,-0.001902,0.047907,-1.220859,-0.000476,-0.001807,0.001919,-0.001900,-0.047888,-0.998851,0.001000,-0.000116,0.005992,-6.210571,72.347778,-38.979187,,,,,,
1484011327.260290,-0.001920,0.047879,-1.220821,0.001635,0.000338,0.001876,-0.001918,-0.047861,-0.998852,-0.001057,0.000574,0.005047,-8.011765,72.199097,-39.881165,,,,,,
1484011327.280310,-0.001930,0.047890,-1.220799,0.000579,-0.000731,0.000820,-0.001928,-0.047872,-0.998852,-0.000193,0.000554,0.006695,-7.485764,72.349060,-39.356140,,,,,,
1484011327.300299,-0.001921,0.047898,-1.220762,0.000568,0.000329,0.001873,-0.001919,-0.047880,-0.998851,-0.000293,-0.000597,0.004314,-7.112671,71.973450,-39.428711,,,,,,
1484011327.320318,-0.001908,0.047897,-1.220736,-0.000490,-0.000742,0.001884,-0.001906,-0.047878,-0.998851,0.000532,0.000530,0.004268,-7.112671,71.973450,-39.428711,,,,,,
1484011327.340338,-0.001898,0.047897,-1.220710,0.000584,-0.001794,0.001901,-0.001896,-0.047878,-0.998851,0.000904,0.000332,0.005077,-7.711060,72.274658,-39.206116,,,,,,
1484011327.360327,-0.001895,0.047883,-1.220684,-0.001561,0.000312,0.000800,-0.001893,-0.047864,-0.998852,0.000336,0.000455,0.004544,-7.633759,72.724670,-39.133240,,,,,,
1484011327.380346,-0.001903,0.047875,-1.220640,-0.000509,0.001381,0.002922,-0.001901,-0.047857,-0.998852,-0.000220,0.000646,0.006680,-7.560638,72.349548,-39.131287,,,,,,
1484011327.400335,-0.001897,0.047879,-1.220608,-0.000490,-0.000741,0.001884,-0.001895,-0.047860,-0.998852,0.000613,0.000390,0.005291,-7.710464,72.424255,-39.506836,,,,,,
1484011327.420355,-0.001881,0.047886,-1.220604,-0.000497,0.000326,-0.000284,-0.001879,-0.047868,-0.998852,-0.000654,0.000352,0.006191,-7.710464,72.424255,-39.506836,,,,,,
1484011327.440344,-0.001915,0.047859,-1.220587,-0.000501,0.000325,0.000783,-0.001913,-0.047840,-0.998853,-0.001170,0.001042,0.006483,-7.860550,72.424255,-39.657043,,,,,,
1484011327.460363,-0.001931,0.047845,-1.220555,0.000575,-0.001791,0.002947,-0.001928,-0.047827,-0.998854,0.000418,0.001639,0.004698,-7.484940,72.573181,-39.957275,,,,,,
1484011327.480352,-0.001957,0.047813,-1.220533,0.000577,-0.000726,-0.000267,-0.001955,-0.047795,-0.998855,-0.001906,0.001073,0.005554,-7.561447,72.273315,-39.955872,,,,,,
1484011327.500372,-0.001983,0.047824,-1.220505,0.000559,0.000332,0.002919,-0.001981,-0.047805,-0.998855,-0.001986,0.000564,0.006530,-7.860092,72.499451,-39.507446,,,,,,
1484011327.520361,-0.001976,0.047823,-1.220485,0.000578,-0.001790,0.001881,-0.001973,-0.047805,-0.998855,0.000600,0.000777,0.006118,-7.860092,72.499451,-39.507446,,,,,,
1484011327.540380,-0.002030,0.047822,-1.220456,-0.000496,-0.000738,0.001864,-0.002028,-0.047804,-0.998855,-0.001360,0.000379,0.003341,-6.958557,72.798218,-39.432617,,,,,,
1484011327.560369,-0.002029,0.047840,-1.220457,0.001643,-0.000717,-0.000264,-0.002027,-0.047822,-0.998854,-0.001284,0.000489,0.005690,-7.560654,72.423462,-39.881653,,,,,,
1484011327.580389,-0.002001,0.047855,-1.220447,0.001634,-0.000714,0.000782,-0.001999,-0.047837,-0.998853,0.000458,0.000260,0.005765,-7.486465,72.199158,-39.280334,,,,,,
1484011327.600408,-0.001975,0.047867,-1.220439,0.000568,-0.000723,0.000779,-0.001972,-0.047849,-0.998853,0.000904,-0.000155,0.005750,-7.860947,72.349121,-39.731689,,,,,,
1484011327.620397,-0.001975,0.047888,-1.220418,0.000557,0.000338,0.001831,-0.001973,-0.047870,-0.998852,0.000264,0.000766,0.007763,-7.860947,72.349121,-39.731689,,,,,,
1484011327.640417,-0.001965,0.047903,-1.220388,0.001634,-0.000713,0.000781,-0.001963,-0.047885,-0.998851,-0.000250,0.000598,0.005550,-7.410156,72.498474,-39.656738,,,,,,
1484011327.660406,-0.001940,0.047905,-1.220374,0.002690,0.000357,0.001837,-0.001938,-0.047886,-0.998851,0.001358,0.001698,0.007167,-7.411880,72.197815,-40.105286,,,,,,
1484011327.680426,-0.001926,0.047911,-1.220348,0.000557,0.000338,0.001831,-0.001924,-0.047893,-0.998851,0.000444,0.000789,0.004893,-7.412933,71.973083,-39.954163,,,,,,
1484011327.700415,-0.001918,0.047930,-1.220333,0.000549,0.001400,0.001817,-0.001916,-0.047912,-0.998850,-0.000205,0.000320,0.004907,-7.861298,72.274231,-39.656311,,,,,,
1484011327.720434,-0.001931,0.047941,-1.220312,0.001634,-0.000713,0.000781,-0.001929,-0.047922,-0.998849,0.000602,0.000178,0.006387,-7.861298,72.274231,-39.656311,,,,,,
1484011327.740423,-0.001914,0.047939,-1.220281,0.001620,0.000352,0.000745,-0.001912,-0.047921,-0.998849,0.000554,-0.000434,0.004388,-7.636459,72.199402,-39.280579,,,,,,
1484011327.760443,-0.001890,0.047930,-1.220246,0.001620,0.000352,0.000745,-0.001888,-0.047912,-0.998850,0.001385,0.000548,0.005030,-7.711838,72.198425,-40.030701,,,,,,
1484011327.780432,-0.001902,0.047911,-1.220220,0.001620,0.000352,0.000745,-0.001900,-0.047892,-0.998851,-0.000771,0.001155,0.006434,-7.412933,71.973083,-39.954163,,,,,,
1484011327.800451,-0.001887,0.047895,-1.220200,0.000550,0.000342,0.001809,-0.001885,-0.047877,-0.998851,0.001198,0.001368,0.004024,-7.862045,72.124207,-39.655579,,,,,,
1484011327.820440,-0.001894,0.047900,-1.220169,0.000558,-0.000719,0.001823,-0.001892,-0.047881,-0.998851,0.000625,0.001235,0.006313,-7.862045,72.124207,-39.655579,,,,,,
1484011327.840460,-0.001893,0.047898,-1.220160,-0.000502,-0.000726,-0.000313,-0.001891,-0.047880,-0.998851,-0.000337,0.000379,0.007350,-7.709442,72.648865,-39.732971,,,,,,
1484011327.860449,-0.001865,0.047886,-1.220135,-0.000510,0.000335,-0.000327,-0.001863,-0.047867,-0.998852,0.000582,0.001221,0.004681,-7.712280,72.049377,-39.429993,,,,,,
1484011327.880468,-0.001866,0.047885,-1.220115,0.001617,0.000352,0.001812,-0.001864,-0.047866,-0.998852,0.000201,0.001098,0.004956,-7.862518,72.048950,-39.880188,,,,,,
1484011327.900472,-0.001833,0.047881,-1.220107,-0.000524,0.001400,0.000703,-0.001831,-0.047862,-0.998852,0.001389,0.000209,0.005063,-7.636734,72.198608,-39.805603,,,,,,
1484011327.920461,-0.001822,0.047866,-1.220077,-0.000512,-0.000724,0.001798,-0.001820,-0.047848,-0.998853,0.001240,0.000576,0.005567,-7.636734,72.198608,-39.805603,,,,,,
1484011327.940480,-0.001860,0.047880,-1.220029,0.000552,-0.000716,0.002868,-0.001858,-0.047861,-0.998852,-0.001712,-0.000448,0.004651,-7.636734,72.198608,-39.805603,,,,,,
1484011327.960469,-0.001849,0.047885,-1.219999,0.001617,0.000357,0.000723,-0.001846,-0.047867,-0.998852,0.001633,0.000672,0.007275,-7.636887,72.124268,-39.355225,,,,,,
,,,,,,,,,,,,,,,,33.759169,-118.389278,321.501404,-1.000000,-1.000000,1484011327.945515
1484011327.980489,-0.001878,0.047898,-1.219967,-0.000527,0.001399,0.001770,-0.001876,-0.047880,-0.998851,-0.000733,0.000349,0.005336,-7.860657,72.423950,-39.882080,,,,,,
1484011328.000479,-0.001893,0.047897,-1.219935,0.000547,0.000347,0.001787,-0.001890,-0.047878,-0.998851,-0.001512,0.000591,0.006145,-7.783585,72.799377,-39.508850,,,,,,
1484011328.020497,-0.001887,0.047903,-1.219899,0.000536,0.001407,0.002839,-0.001885,-0.047885,-0.998851,-0.000266,0.000278,0.004237,-7.783585,72.799377,-39.508850,,,,,,
1484011328.040486,-0.001870,0.047920,-1.219886,0.001617,0.000357,0.000723,-0.001867,-0.047901,-0.998850,0.001394,-0.000256,0.006449,-7.260544,72.423340,-39.656128,,,,,,
1484011328.060506,-0.001890,0.047939,-1.219860,0.000544,0.000351,0.001765,-0.001887,-0.047921,-0.998849,-0.001073,-0.000175,0.007822,-7.561020,72.348450,-39.881287,,,,,,
1484011328.080495,-0.001883,0.047914,-1.219836,0.000552,-0.000711,0.001779,-0.001881,-0.047895,-0.998851,0.000629,0.000654,0.008418,-7.636368,72.273621,-39.805969,,,,,,
,,,,,,,,,,,,,,,,33.759206,-118.389182,305.287476,0.000000,-1.000000,1484011327.999920
1484011328.100515,-0.001885,0.047909,-1.219811,0.001603,0.001422,0.001753,-0.001882,-0.047891,-0.998851,-0.000361,0.000253,0.007091,-7.334335,72.648682,-39.507446,,,,,,
1484011328.120504,-0.001906,0.047931,-1.219796,0.000555,-0.000710,0.000712,-0.001904,-0.047913,-0.998850,-0.001117,0.000321,0.005060,-7.334335,72.648682,-39.507446,,,,,,
1484011328.140523,-0.001916,0.047954,-1.219776,0.000545,0.000351,0.001765,-0.001914,-0.047935,-0.998849,-0.000680,0.000068,0.007546,-7.635620,72.423645,-39.806763,,,,,,
1484011328.160512,-0.001924,0.047924,-1.219746,-0.000519,0.000343,0.000695,-0.001921,-0.047906,-0.998850,-0.000459,0.001306,0.007105,-7.561691,72.198608,-39.730469,,,,,,
1484011328.180532,-0.001895,0.047925,-1.219728,-0.000511,-0.000719,0.000709,-0.001893,-0.047906,-0.998850,0.002214,0.000528,0.004496,-7.709427,72.575012,-38.982605,,,,,,
1484011328.200552,-0.001900,0.047902,-1.219698,-0.001597,0.001394,0.001744,-0.001898,-0.047884,-0.998851,0.000571,0.000353,0.006755,-7.786362,72.273865,-39.806213,,,,,,
1484011328.220541,-0.001895,0.047889,-1.219684,0.000544,0.000356,0.000676,-0.001893,-0.047870,-0.998852,-0.000381,0.000904,0.005199,-7.786362,72.273865,-39.806213,,,,,,
1484011328.240561,-0.001920,0.047851,-1.219658,0.000552,-0.000706,0.000690,-0.001918,-0.047833,-0.998854,-0.000234,0.001248,0.006666,-7.861771,72.198914,-39.880981,,,,,,
1484011328.260550,-0.001909,0.047858,-1.219651,0.000552,-0.000705,0.000690,-0.001906,-0.047840,-0.998853,-0.000260,0.000812,0.005704,-7.487106,72.049561,-39.054626,,,,,,
1484011328.280568,-0.001913,0.047839,-1.219631,-0.001585,-0.000725,0.001751,-0.001911,-0.047821,-0.998854,-0.000165,0.000397,0.003584,-7.408829,72.724060,-39.282898,,,,,,
1484011328.300557,-0.001940,0.047832,-1.219611,0.001615,-0.000697,0.001759,-0.001938,-0.047813,-0.998854,-0.002151,0.000435,0.005660,-7.636063,72.348450,-39.956360,,,,,,
1484011328.320577,-0.001921,0.047849,-1.219583,0.000544,0.000356,0.000676,-0.001919,-0.047830,-0.998854,0.000363,0.000528,0.007032,-7.636063,72.348450,-39.956360,,,,,,
1484011328.340566,-0.001891,0.047842,-1.219560,0.000559,-0.001767,0.000704,-0.001889,-0.047824,-0.998854,0.001050,0.000873,0.004408,-7.111847,72.197510,-40.029785,,,,,,
1484011328.360585,-0.001913,0.047828,-1.219530,-0.000515,-0.000714,0.000687,-0.001911,-0.047810,-0.998855,-0.000989,0.000919,0.006331,-7.560562,72.349792,-38.981262,,,,,,
1484011328.380574,-0.001888,0.047822,-1.219497,0.000534,0.000358,0.002787,-0.001886,-0.047804,-0.998855,-0.000510,0.000319,0.004165,-7.186737,72.197937,-39.804932,,,,,,
1484011328.400594,-0.001873,0.047829,-1.219479,-0.000526,0.000351,0.000651,-0.001871,-0.047811,-0.998855,-0.000647,0.000265,0.005492,-7.411392,72.273193,-39.880676,,,,,,
1484011328.420583,-0.001884,0.047824,-1.219444,0.000537,0.000360,0.001720,-0.001881,-0.047806,-0.998855,0.000844,0.001343,0.007919,-7.411392,72.273193,-39.880676,,,,,,
1484011328.440603,-0.001904,0.047820,-1.219424,-0.000519,-0.000710,0.000665,-0.001902,-0.047802,-0.998855,-0.000723,0.000408,0.004135,-7.189148,71.747498,-40.102661,,,,,,
1484011328.460623,-0.001871,0.047834,-1.219397,0.000537,0.000360,0.001720,-0.001868,-0.047815,-0.998854,0.001228,0.000498,0.004561,-7.637039,72.123840,-39.655212,,,,,,
1484011328.480611,-0.001872,0.047847,-1.219384,0.000537,0.000360,0.001720,-0.001870,-0.047829,-0.998854,0.000573,0.000252,0.006544,-7.411804,72.124146,-39.204956,,,,,,
1484011328.500631,-0.001872,0.047855,-1.219359,0.001611,-0.000692,0.001737,-0.001870,-0.047837,-0.998853,-0.000053,0.000290,0.005842,-7.711807,72.124634,-39.205383,,,,,,
1484011328.520620,-0.001862,0.047842,-1.219331,0.000545,-0.000702,0.001734,-0.001859,-0.047824,-0.998854,-0.000719,0.000796,0.003630,-7.711807,72.124634,-39.205383,,,,,,
1484011328.540639,-0.001890,0.047825,-1.219305,0.000536,0.000364,0.000631,-0.001888,-0.047807,-0.998855,-0.001316,-0.000258,0.006240,-7.635986,72.348633,-39.806335,,,,,,
1484011328.560628,-0.001927,0.047817,-1.219286,0.000551,-0.001759,0.000660,-0.001925,-0.047799,-0.998855,-0.000181,0.000375,0.005355,-7.486374,72.273376,-39.805786,,,,,,
1484011328.580648,-0.001968,0.047809,-1.219261,0.000540,-0.000698,0.001712,-0.001966,-0.047791,-0.998855,-0.001498,0.000839,0.008194,-7.637665,71.974243,-39.429504,,,,,,
1484011328.600637,-0.001990,0.047790,-1.219242,-0.000531,0.000355,0.000628,-0.001988,-0.047771,-0.998856,-0.000835,0.000606,0.006455,-7.562943,71.973328,-39.954407,,,,,,
1484011328.620656,-0.001965,0.047761,-1.219230,-0.000531,0.000355,0.000628,-0.001963,-0.047743,-0.998858,0.000376,0.000807,0.007296,-7.562943,71.973328,-39.954407,,,,,,
1484011328.640646,-0.001911,0.047753,-1.219204,-0.000531,0.000355,0.000628,-0.001908,-0.047735,-0.998858,0.001390,0.001089,0.006289,-7.636658,72.198853,-39.655579,,,,,,
1484011328.660666,-0.001895,0.047765,-1.219197,0.000536,0.000365,0.000631,-0.001893,-0.047747,-0.998858,0.001283,0.000826,0.005160,-7.410538,72.423523,-39.656372,,,,,,
1484011328.680655,-0.001924,0.047792,-1.219183,0.000543,-0.000697,0.000645,-0.001922,-0.047773,-0.998856,-0.000947,-0.000231,0.004563,-7.410934,72.348389,-39.731018,,,,,,
1484011328.700673,-0.001927,0.047802,-1.219171,-0.000528,-0.000703,0.000620,-0.001925,-0.047784,-0.998856,-0.001036,0.000405,0.006333,-7.637863,71.973633,-39.804504,,,,,,
1484011328.720662,-0.001919,0.047838,-1.219138,0.001602,-0.000685,0.001693,-0.001917,-0.047819,-0.998854,0.001307,0.000532,0.007597,-7.637863,71.973633,-39.804504,,,,,,
1484011328.740682,-0.001883,0.047833,-1.219127,-0.000532,0.000360,-0.000460,-0.001881,-0.047815,-0.998854,0.001042,0.000589,0.007628,-7.411057,72.274170,-39.205688,,,,,,
1484011328.760701,-0.001907,0.047845,-1.219098,0.001594,0.000377,0.001679,-0.001905,-0.047827,-0.998854,-0.001284,0.000570,0.006926,-7.634933,72.499512,-39.207153,,,,,,
1484011328.780690,-0.001868,0.047807,-1.219083,-0.001595,-0.000711,0.000617,-0.001866,-0.047789,-0.998856,0.000706,0.000654,0.007523,-7.411682,72.198364,-39.730286,,,,,,
1484011328.800710,-0.001869,0.047789,-1.219060,0.000528,0.000368,0.001676,-0.001867,-0.047771,-0.998857,-0.000178,0.001262,0.005891,-7.637207,72.049438,-39.279846,,,,,,
1484011328.820699,-0.001835,0.047792,-1.219023,0.000532,-0.000694,0.002756,-0.001833,-0.047774,-0.998856,0.001055,0.001143,0.004624,-7.637207,72.049438,-39.279846,,,,,,
1484011328.840719,-0.001846,0.047779,-1.219017,0.000546,-0.001754,0.000637,-0.001844,-0.047760,-0.998857,-0.000795,0.000748,0.006181,-7.486298,72.273621,-39.655762,,,,,,
1484011328.860708,-0.001908,0.047761,-1.218986,0.000526,0.000372,0.000587,-0.001906,-0.047743,-0.998858,-0.000337,0.001249,0.005755,-7.410538,72.423523,-39.656372,,,,,,
1484011328.880728,-0.001862,0.047742,-1.218960,-0.000544,0.000362,0.001651,-0.001860,-0.047724,-0.998859,0.000990,0.000879,0.006626,-7.112823,71.972961,-39.728699,,,,,,
1484011328.900717,-0.001843,0.047736,-1.218944,-0.000544,0.000362,0.001651,-0.001840,-0.047718,-0.998859,0.001505,0.001377,0.006687,-7.637558,71.974548,-39.204529,,,,,,
1484011328.920721,-0.001814,0.047724,-1.218939,0.001588,0.001445,-0.000491,-0.001812,-0.047706,-0.998860,0.000408,0.000892,0.005268,-7.637558,71.974548,-39.204529,,,,,,
1484011328.940711,-0.001768,0.047744,-1.218924,0.000533,-0.000688,0.000601,-0.001766,-0.047726,-0.998859,0.002148,0.000378,0.005741,-7.633804,72.724548,-39.208252,,,,,,
1484011328.960730,-0.001713,0.047759,-1.218908,-0.000544,0.000363,0.001651,-0.001711,-0.047741,-0.998858,0.000673,0.000789,0.003848,-7.412552,71.974182,-39.204163,,,,,,
1484011328.980719,-0.001734,0.047737,-1.218880,-0.000536,-0.000699,0.001665,-0.001732,-0.047719,-0.998859,-0.000267,0.000874,0.006596,-7.562119,72.123474,-39.805115,,,,,,
1484011329.000739,-0.001722,0.047717,-1.218874,-0.001603,-0.000708,0.001662,-0.001720,-0.047699,-0.998860,-0.001499,0.001236,0.006276,-7.712189,72.123535,-39.955383,,,,,,
1484011329.020758,-0.001764,0.047712,-1.218850,-0.000554,0.001428,0.000548,-0.001762,-0.047694,-0.998860,-0.002068,0.001139,0.006444,-7.712189,72.123535,-39.955383,,,,,,
1484011329.040747,-0.001744,0.047696,-1.218835,0.000544,-0.002809,0.000607,-0.001742,-0.047678,-0.998861,0.000827,0.000742,0.006002,-6.961151,72.273254,-39.354980,,,,,,
1484011329.060767,-0.001793,0.047679,-1.218816,-0.000546,0.000366,0.000562,-0.001791,-0.047661,-0.998862,-0.001277,0.000984,0.008078,-7.561523,72.273071,-40.105835,,,,,,
1484011329.080756,-0.001745,0.047663,-1.218779,0.001584,0.000384,0.001635,-0.001743,-0.047645,-0.998863,0.001483,0.001350,0.004982,-7.487823,71.973511,-39.729248,,,,,,
,,,,,,,,,,,,,,,,33.759206,-118.389182,310.160706,0.000000,-1.000000,1484011328.999922
1484011329.100775,-0.001710,0.047667,-1.218759,0.000509,0.001437,0.001617,-0.001708,-0.047649,-0.998863,-0.000214,0.000423,0.006843,-7.486328,72.273499,-39.730774,,,,,,
1484011329.120764,-0.001733,0.047679,-1.218746,-0.000542,-0.000696,0.001643,-0.001731,-0.047660,-0.998862,-0.001199,0.000312,0.004493,-7.486328,72.273499,-39.730774,,,,,,
1484011329.140784,-0.001733,0.047691,-1.218709,0.000533,-0.001748,0.001660,-0.001731,-0.047673,-0.998861,0.000739,-0.000697,0.005804,-7.261398,72.273010,-39.880432,,,,,,
1484011329.160773,-0.001701,0.047679,-1.218693,-0.000557,0.001428,0.001614,-0.001699,-0.047661,-0.998862,0.000295,0.000603,0.004950,-7.337143,72.123108,-39.879822,,,,,,
1484011329.180792,-0.001691,0.047676,-1.218671,0.000504,0.001439,0.001596,-0.001689,-0.047658,-0.998862,-0.001011,0.000630,0.007026,-7.936096,72.348755,-40.031799,,,,,,
1484011329.200781,-0.001678,0.047665,-1.218645,-0.000559,0.001431,0.000526,-0.001676,-0.047647,-0.998863,-0.000277,0.000421,0.004905,-7.635696,72.423462,-39.956787,,,,,,
1484011329.220801,-0.001683,0.047647,-1.218612,0.000515,0.000379,0.000543,-0.001681,-0.047629,-0.998864,-0.000379,0.000953,0.007302,-7.635696,72.423462,-39.956787,,,,,,
1484011329.240790,-0.001677,0.047620,-1.218617,0.000515,0.000379,0.000543,-0.001675,-0.047602,-0.998865,0.000333,0.001154,0.006647,-7.035797,72.348328,-39.430481,,,,,,
1484011329.260809,-0.001668,0.047620,-1.218601,-0.000562,0.001430,0.001593,-0.001666,-0.047602,-0.998865,0.000232,-0.000600,0.006006,-7.338272,71.898132,-39.878662,,,,,,
1484011329.280798,-0.001679,0.047622,-1.218595,0.002648,0.000397,0.000549,-0.001677,-0.047604,-0.998865,0.000258,0.000454,0.005792,-7.411392,72.273193,-39.880676,,,,,,
1484011329.300818,-0.001660,0.047604,-1.218569,-0.000555,0.000368,0.001607,-0.001658,-0.047586,-0.998866,0.000773,0.001382,0.006236,-7.636017,72.348572,-39.881348,,,,,,
1484011329.320837,-0.001660,0.047610,-1.218542,-0.001621,0.000359,0.001604,-0.001658,-0.047592,-0.998865,-0.001119,0.000229,0.007029,-7.636017,72.348572,-39.881348,,,,,,
1484011329.340826,-0.001692,0.047630,-1.218529,0.001574,0.000389,0.001591,-0.001690,-0.047612,-0.998864,-0.001041,-0.000132,0.006341,-7.334885,72.573120,-39.882019,,,,,,
1484011329.360846,-0.001726,0.047629,-1.218496,-0.000560,0.000370,0.001585,-0.001724,-0.047611,-0.998864,-0.001282,0.000324,0.007455,-7.637589,71.974426,-39.279480,,,,,,
1484011329.380835,-0.001719,0.047619,-1.218475,0.000518,-0.000681,0.000536,-0.001717,-0.047601,-0.998865,0.000649,0.000405,0.006403,-7.786392,72.273804,-39.881226,,,,,,
1484011329.400855,-0.001736,0.047624,-1.218454,0.000518,-0.000681,0.000536,-0.001734,-0.047606,-0.998865,0.000803,0.000731,0.008127,-6.959198,72.722412,-39.957214,,,,,,
1484011329.420844,-0.001726,0.047639,-1.218444,-0.000556,0.000371,0.000518,-0.001724,-0.047621,-0.998864,0.001083,0.000288,0.005669,-6.959198,72.722412,-39.957214,,,,,,
1484011329.440863,-0.001748,0.047622,-1.218422,0.000518,-0.000681,0.000535,-0.001746,-0.047604,-0.998865,-0.000619,0.001675,0.007059,-7.261658,72.198303,-39.655029,,,,,,
1484011329.460852,-0.001741,0.047638,-1.218401,0.001577,0.000390,0.000524,-0.001739,-0.047620,-0.998864,-0.000382,-0.000003,0.007943,-7.861588,72.199463,-39.505981,,,,,,
1484011329.480872,-0.001748,0.047623,-1.218353,-0.000552,-0.000691,0.001599,-0.001746,-0.047605,-0.998865,0.000663,0.000257,0.005487,-7.785904,72.349121,-39.656555,,,,,,
1484011329.500861,-0.001717,0.047634,-1.218328,0.000494,0.001443,0.001552,-0.001716,-0.047616,-0.998864,0.000769,0.000344,0.006921,-7.561295,72.273743,-39.655823,,,,,,
1484011329.520880,-0.001674,0.047650,-1.218303,0.001561,0.001452,0.001555,-0.001672,-0.047632,-0.998864,0.000970,-0.000251,0.007637,-7.561295,72.273743,-39.655823,,,,,,
1484011329.540869,-0.001677,0.047643,-1.218298,0.001571,0.000392,0.000503,-0.001675,-0.047625,-0.998864,-0.000278,0.000598,0.005181,-7.635498,72.424011,-39.581787,,,,,,
1484011329.560889,-0.001732,0.047642,-1.218291,-0.000565,0.000372,0.001564,-0.001730,-0.047624,-0.998864,-0.002024,0.000536,0.005303,-7.710236,72.498718,-39.807251,,,,,,
1484011329.580908,-0.001720,0.047674,-1.218265,0.001576,-0.000671,0.001584,-0.001718,-0.047655,-0.998862,-0.000068,-0.000562,0.006080,-7.709442,72.648865,-39.732971,,,,,,
1484011329.600897,-0.001702,0.047694,-1.218240,0.000510,-0.000680,0.001581,-0.001701,-0.047676,-0.998861,0.001105,0.000114,0.004995,-7.335709,72.348999,-39.280884,,,,,,
1484011329.620917,-0.001719,0.047712,-1.218218,0.000502,0.000382,0.001566,-0.001717,-0.047694,-0.998861,-0.001228,0.000361,0.006658,-7.335709,72.348999,-39.280884,,,,,,
1484011329.640906,-0.001726,0.047745,-1.218202,-0.000561,0.000373,0.000497,-0.001725,-0.047726,-0.998859,-0.000305,-0.000232,0.005741,-7.187271,72.122498,-40.104553,,,,,,
1484011329.660925,-0.001746,0.047734,-1.218181,0.001566,0.000393,0.000482,-0.001744,-0.047716,-0.998859,-0.000393,0.000063,0.006657,-7.635712,72.349426,-39.281311,,,,,,
1484011329.680914,-0.001691,0.047750,-1.218158,0.000504,-0.000678,0.001560,-0.001689,-0.047732,-0.998859,0.002513,0.000048,0.005100,-7.260620,72.423096,-39.806152,,,,,,
1484011329.700934,-0.001678,0.047758,-1.218160,0.000507,-0.000677,0.000493,-0.001676,-0.047740,-0.998858,0.000227,0.000849,0.004443,-7.635269,72.498535,-39.882141,,,,,,
1484011329.720923,-0.001676,0.047763,-1.218134,0.000497,0.000384,0.001545,-0.001674,-0.047745,-0.998858,-0.000752,0.000778,0.006320,-7.635269,72.498535,-39.882141,,,,,,
1484011329.740942,-0.001696,0.047757,-1.218113,0.001563,0.000393,0.001548,-0.001694,-0.047738,-0.998858,-0.000747,0.001459,0.006350,-6.738342,71.897095,-39.952759,,,,,,
1484011329.760931,-0.001680,0.047767,-1.218088,0.000504,-0.000678,0.001559,-0.001678,-0.047749,-0.998858,0.000366,0.000660,0.006289,-7.411758,72.198181,-39.880310,,,,,,
1484011329.780951,-0.001682,0.047741,-1.218067,-0.000567,0.000375,0.000476,-0.001680,-0.047723,-0.998859,0.000261,0.000985,0.007175,-7.635315,72.424561,-39.206787,,,,,,
1484011329.800940,-0.001717,0.047731,-1.218035,0.000507,-0.000677,0.000493,-0.001715,-0.047713,-0.998860,-0.001703,0.000563,0.006932,-7.560318,72.424438,-39.206665,,,,,,
1484011329.820960,-0.001667,0.047769,-1.218001,0.000494,0.000386,0.000458,-0.001665,-0.047751,-0.998858,-0.001173,0.001227,0.006213,-7.560318,72.424438,-39.206665,,,,,,
1484011329.840949,-0.001682,0.047781,-1.217981,-0.000573,0.000377,0.000455,-0.001681,-0.047763,-0.998857,0.000582,0.000735,0.005785,-7.934784,72.574280,-39.657898,,,,,,
1484011329.860968,-0.001681,0.047762,-1.217966,0.000494,0.000386,0.000458,-0.001679,-0.047744,-0.998858,-0.000427,-0.000046,0.005007,-7.185547,72.423218,-39.656006,,,,,,
1484011329.880988,-0.001644,0.047744,-1.217943,0.000480,0.001446,0.002577,-0.001643,-0.047726,-0.998859,0.000361,0.000698,0.004596,-7.636765,72.198547,-39.880615,,,,,,
1484011329.900977,-0.001721,0.047732,-1.217903,0.000498,-0.000676,0.001539,-0.001719,-0.047714,-0.998860,-0.001669,0.000839,0.006382,-7.488724,71.823059,-40.028503,,,,,,
1484011329.920997,-0.001750,0.047710,-1.217898,0.000497,0.000387,-0.000609,-0.001748,-0.047692,-0.998861,-0.000755,0.001351,0.006673,-7.488724,71.823059,-40.028503,,,,,,
1484011329.940986,-0.001689,0.047745,-1.217881,0.001568,-0.000666,0.000475,-0.001687,-0.047727,-0.998859,0.002068,0.000471,0.005985,-7.861771,72.198914,-39.880981,,,,,,
1484011329.961006,-0.001666,0.047729,-1.217851,0.000498,-0.000676,0.001538,-0.001665,-0.047710,-0.998860,0.000398,0.001308,0.005497,-7.410263,72.498169,-39.881775,,,,,,
1484011329.980995,-0.001629,0.047731,-1.217828,0.000488,0.000388,0.000437,-0.001627,-0.047713,-0.998860,0.000849,0.000426,0.004979,-7.411758,72.198181,-39.880310,,,,,,
1484011330.001014,-0.001622,0.047730,-1.217808,0.000485,0.000387,0.001504,-0.001620,-0.047712,-0.998860,-0.000821,0.000791,0.005024,-7.861542,72.199585,-39.430969,,,,,,
1484011330.021003,-0.001606,0.047734,-1.217784,0.000488,0.000388,0.000437,-0.001604,-0.047716,-0.998860,-0.000746,0.000261,0.005940,-7.861542,72.199585,-39.430969,,,,,,
1484011330.041023,-0.001565,0.047716,-1.217761,0.001547,0.001459,0.000426,-0.001563,-0.047698,-0.998861,0.000388,0.000289,0.007070,-7.561020,72.348450,-39.881287,,,,,,
1484011330.061012,-0.001576,0.047720,-1.217746,0.000495,-0.000673,0.000451,-0.001574,-0.047702,-0.998860,-0.000684,0.001194,0.005940,-7.408279,72.873474,-39.658630,,,,,,
1484011330.081031,-0.001600,0.047736,-1.217736,0.001559,-0.000665,0.001521,-0.001598,-0.047718,-0.998860,-0.000737,0.000675,0.006550,-7.637222,72.123291,-40.030212,,,,,,
,,,,,,,,,,,,,,,,33.759192,-118.389248,311.499207,0.000000,-1.000000,1484011329.999921
1484011330.101020,-0.001670,0.047751,-1.217708,0.003695,-0.000645,0.000460,-0.001668,-0.047733,-0.998859,-0.002055,0.000064,0.005954,-7.561447,72.273315,-39.955872,,,,,,
1484011330.121040,-0.001710,0.047773,-1.217687,0.001562,-0.000664,0.000454,-0.001708,-0.047755,-0.998858,-0.001237,0.001017,0.004412,-7.561447,72.273315,-39.955872,,,,,,
1484011330.141059,-0.001734,0.047776,-1.217666,-0.000585,0.000380,0.000414,-0.001732,-0.047758,-0.998857,-0.001106,0.000715,0.005831,-7.260468,72.423584,-39.506165,,,,,,
1484011330.161048,-0.001772,0.047754,-1.217630,-0.001658,0.000369,0.002544,-0.001770,-0.047735,-0.998858,-0.001343,0.001028,0.005725,-7.860321,72.424927,-39.207092,,,,,,
1484011330.181068,-0.001802,0.047742,-1.217594,-0.000588,0.000379,0.001481,-0.001800,-0.047723,-0.998859,-0.000962,0.001123,0.006076,-7.410782,72.348877,-39.431030,,,,,,
1484011330.201057,-0.001796,0.047728,-1.217570,0.001545,0.000398,0.001486,-0.001794,-0.047710,-0.998860,0.000573,0.001216,0.002430,-7.636536,72.199219,-39.430603,,,,,,
1484011330.221077,-0.001774,0.047739,-1.217551,0.000478,0.000389,0.001483,-0.001772,-0.047721,-0.998859,-0.000227,0.000663,0.005008,-7.636536,72.199219,-39.430603,,,,,,
1484011330.241066,-0.001799,0.047728,-1.217542,0.000489,-0.000672,0.000431,-0.001797,-0.047710,-0.998860,-0.000309,0.000636,0.005848,-7.709808,72.573853,-39.732605,,,,,,
1484011330.261085,-0.001792,0.047727,-1.217518,0.000470,0.001450,0.001469,-0.001790,-0.047709,-0.998860,-0.001079,0.000468,0.006153,-7.411530,72.198853,-39.430298,,,,,,
1484011330.281074,-0.001786,0.047731,-1.217488,0.001545,0.000398,0.001486,-0.001784,-0.047713,-0.998860,0.000349,0.000411,0.004688,-7.636841,72.198303,-40.030579,,,,,,
1484011330.301094,-0.001768,0.047714,-1.217470,0.000472,0.000390,0.001464,-0.001766,-0.047696,-0.998860,0.000744,0.000302,0.006337,-7.034897,72.572632,-39.881592,,,,,,
1484011330.321083,-0.001751,0.047737,-1.217457,0.001554,-0.001724,0.001495,-0.001749,-0.047719,-0.998859,0.001627,0.000692,0.007770,-7.034897,72.572632,-39.881592,,,,,,
1484011330.341102,-0.001802,0.047752,-1.217437,0.000491,-0.001732,0.000425,-0.001800,-0.047734,-0.998858,-0.001191,0.000477,0.006305,-7.408798,72.724182,-39.207947,,,,,,
1484011330.361091,-0.001823,0.047726,-1.217422,0.000472,0.000390,0.001463,-0.001821,-0.047708,-0.998860,0.000142,0.001001,0.005543,-7.561066,72.274414,-39.205872,,,,,,
1484011330.381111,-0.001860,0.047750,-1.217413,0.000483,-0.000671,0.000411,-0.001858,-0.047732,-0.998858,-0.001056,0.000430,0.007617,-7.712555,71.974670,-39.204651,,,,,,
1484011330.401130,-0.001839,0.047751,-1.217395,-0.000602,0.001442,0.001446,-0.001837,-0.047732,-0.998858,0.000387,-0.000089,0.005984,-7.861359,72.200134,-39.055969,,,,,,
1484011330.421119,-0.001869,0.047776,-1.217380,-0.000591,0.000381,0.000394,-0.001867,-0.047758,-0.998857,-0.000437,-0.000262,0.007555,-7.861359,72.200134,-39.055969,,,,,,
1484011330.441139,-0.001871,0.047738,-1.217361,0.000464,0.001451,0.001449,-0.001869,-0.047720,-0.998859,-0.000496,0.001455,0.005115,-7.260712,72.348877,-39.280762,,,,,,
1484011330.461128,-0.001832,0.047742,-1.217333,0.001532,0.000400,0.001447,-0.001830,-0.047724,-0.998859,0.001052,0.000116,0.005207,-7.636063,72.274536,-39.205994,,,,,,
1484011330.481147,-0.001830,0.047750,-1.217304,-0.000612,0.001441,0.002493,-0.001828,-0.047732,-0.998859,-0.000095,0.000216,0.007144,-7.637207,72.049438,-39.279846,,,,,,
1484011330.501136,-0.001847,0.047784,-1.217301,0.000469,0.000391,0.000377,-0.001845,-0.047766,-0.998857,-0.000383,0.000204,0.007051,-7.185684,72.348877,-39.205688,,,,,,
1484011330.521156,-0.001887,0.047782,-1.217276,-0.000601,0.000381,0.001441,-0.001885,-0.047764,-0.998857,-0.000648,-0.000057,0.003908,-7.185684,72.348877,-39.205688,,,,,,
1484011330.541145,-0.001869,0.047791,-1.217248,-0.000593,-0.000680,0.001455,-0.001866,-0.047773,-0.998856,0.000173,0.000318,0.004533,-7.486328,72.273499,-39.730774,,,,,,
1484011330.561164,-0.001871,0.047774,-1.217235,0.001535,0.000401,0.000380,-0.001869,-0.047756,-0.998857,-0.000634,0.001202,0.004915,-7.186661,72.198181,-39.654907,,,,,,
1484011330.581153,-0.001828,0.047751,-1.217218,0.000473,-0.000671,0.001458,-0.001826,-0.047733,-0.998858,0.001521,0.001072,0.003940,-8.161575,72.199890,-39.506409,,,,,,
1484011330.601173,-0.001836,0.047741,-1.217199,0.000469,0.000392,0.000377,-0.001834,-0.047723,-0.998859,-0.000394,0.000085,0.005649,-7.935638,72.350098,-39.131836,,,,,,
1484011330.621162,-0.001832,0.047728,-1.217186,-0.000608,0.000382,0.001421,-0.001830,-0.047710,-0.998860,-0.000962,0.000331,0.006153,-7.935638,72.350098,-39.131836,,,,,,
1484011330.641181,-0.001852,0.047718,-1.217163,0.001533,-0.000661,0.001441,-0.001850,-0.047700,-0.998860,0.000660,0.000748,0.005147,-7.711426,72.199646,-39.205750,,,,,,
1484011330.661170,-0.001820,0.047717,-1.217162,-0.000604,0.000383,0.000354,-0.001818,-0.047699,-0.998860,0.000750,-0.000122,0.005162,-7.338272,71.898132,-39.878662,,,,,,
1484011330.681190,-0.001837,0.047708,-1.217143,-0.000615,0.001443,0.001407,-0.001835,-0.047690,-0.998860,-0.001018,0.000403,0.006902,-7.859482,72.575134,-39.057800,,,,,,
1484011330.701210,-0.001831,0.047707,-1.217147,0.000470,-0.000669,0.000371,-0.001829,-0.047689,-0.998861,-0.001070,0.000173,0.005849,-7.485199,72.424683,-38.981506,,,,,,
1484011330.721199,-0.001832,0.047686,-1.217129,-0.000600,-0.000680,0.001435,-0.001830,-0.047668,-0.998862,0.000442,0.000686,0.007391,-7.485199,72.424683,-38.981506,,,,,,
1484011330.741218,-0.001840,0.047657,-1.217111,-0.000608,0.000382,0.001421,-0.001838,-0.047639,-0.998863,0.000175,0.001893,0.007484,-7.635941,72.348755,-39.731323,,,,,,
1484011330.761207,-0.001818,0.047655,-1.217094,0.000465,0.000394,-0.000710,-0.001816,-0.047637,-0.998863,-0.000991,0.000564,0.003792,-7.859192,72.649902,-39.208252,,,,,,
1484011330.781227,-0.001823,0.047656,-1.217082,0.000463,-0.000669,0.000351,-0.001821,-0.047638,-0.998863,-0.000193,0.000946,0.006004,-7.858887,72.724670,-39.358582,,,,,,
1484011330.801216,-0.001824,0.047649,-1.217075,0.000455,0.000393,0.000337,-0.001822,-0.047630,-0.998863,0.000738,0.000603,0.005028,-8.084961,72.500061,-39.282776,,,,,,
1484011330.821235,-0.001838,0.047654,-1.217067,0.001526,-0.000661,0.001421,-0.001836,-0.047636,-0.998863,0.000020,0.000883,0.004921,-8.084961,72.500061,-39.282776,,,,,,
1484011330.841224,-0.001829,0.047672,-1.217050,-0.001678,0.000374,0.000331,-0.001827,-0.047654,-0.998862,0.000393,0.000687,0.007590,-8.010040,72.499756,-39.432678,,,,,,
1484011330.861244,-0.001847,0.047683,-1.217027,-0.000604,-0.000678,0.000348,-0.001845,-0.047665,-0.998862,-0.000673,0.000057,0.008215,-8.084808,72.500549,-38.982788,,,,,,
1484011330.881233,-0.001861,0.047714,-1.217013,-0.000608,0.000384,-0.000732,-0.001859,-0.047696,-0.998860,0.000165,0.000134,0.004338,-7.408432,72.799194,-39.208313,,,,,,
1484011330.901252,-0.001906,0.047722,-1.216988,0.001511,0.001462,0.001392,-0.001903,-0.047704,-0.998860,-0.002003,0.000768,0.004719,-7.636612,72.198975,-39.580627,,,,,,
1484011330.921204,-0.001891,0.047715,-1.216976,0.001518,0.000401,0.001407,-0.001889,-0.047697,-0.998860,-0.000369,0.000547,0.006917,-7.636612,72.198975,-39.580627,,,,,,
1484011330.941224,-0.001832,0.047726,-1.216967,0.001514,0.000402,0.000320,-0.001830,-0.047708,-0.998860,0.002258,0.000680,0.006626,-7.635620,72.423645,-39.806763,,,,,,
1484011330.961243,-0.001862,0.047707,-1.216954,-0.000611,-0.000678,0.000328,-0.001860,-0.047689,-0.998860,-0.000688,0.000600,0.006368,-7.786682,72.198975,-39.730835,,,,,,
1484011330.981232,-0.001843,0.047739,-1.216926,0.000445,0.000392,0.001384,-0.001840,-0.047721,-0.998859,-0.000708,-0.000161,0.007862,-7.859344,72.649475,-39.508240,,,,,,
1484011331.001252,-0.001809,0.047734,-1.216916,0.002589,-0.000650,0.000337,-0.001807,-0.047716,-0.998859,0.000159,0.000658,0.005604,-7.486694,72.198486,-39.730347,,,,,,
1484011331.021241,-0.001839,0.047743,-1.216898,0.000451,0.000394,-0.000750,-0.001836,-0.047724,-0.998859,-0.000773,0.000102,0.006336,-7.486694,72.198486,-39.730347,,,,,,
1484011331.041260,-0.001806,0.047756,-1.216877,-0.000622,0.000383,0.001381,-0.001804,-0.047738,-0.998858,-0.001141,0.000039,0.005618,-7.863251,71.898987,-39.804443,,,,,,
,,,,,,,,,,,,,,,,33.759192,-118.389248,312.699341,0.000000,-1.000000,1484011330.999920
1484011331.061249,-0.001783,0.047772,-1.216861,0.002578,0.000411,0.001389,-0.001781,-0.047754,-0.998858,0.000774,0.000452,0.005083,-7.786392,72.273804,-39.881226,,,,,,
1484011331.081269,-0.001804,0.047800,-1.216849,0.000445,0.000392,0.001384,-0.001802,-0.047782,-0.998856,-0.000151,-0.000162,0.006714,-7.559036,72.723755,-39.658081,,,,,,
1484011331.101258,-0.001825,0.047815,-1.216846,-0.001693,0.000374,0.000291,-0.001822,-0.047797,-0.998855,-0.000253,0.000129,0.006912,-7.559189,72.649414,-39.207764,,,,,,
1484011331.121278,-0.001812,0.047813,-1.216830,-0.000629,0.000383,0.001361,-0.001810,-0.047794,-0.998856,0.000192,0.000660,0.003525,-7.559189,72.649414,-39.207764,,,,,,
1484011331.141267,-0.001810,0.047812,-1.216819,-0.000626,0.000384,0.000294,-0.001808,-0.047794,-0.998856,-0.000878,0.000187,0.007309,-7.636963,72.124084,-39.505249,,,,,,
1484011331.161286,-0.001812,0.047823,-1.216813,0.000441,0.000393,0.000297,-0.001810,-0.047804,-0.998855,-0.000326,0.000533,0.005645,-7.560623,72.423523,-39.806641,,,,,,
1484011331.181275,-0.001812,0.047803,-1.216795,-0.000634,0.001445,0.000280,-0.001809,-0.047785,-0.998856,-0.000281,0.000651,0.004883,-7.111404,72.272766,-39.880188,,,,,,
1484011331.201295,-0.001814,0.047798,-1.216779,0.000440,0.000393,0.000297,-0.001812,-0.047779,-0.998856,-0.000202,0.000950,0.004533,-6.737427,71.973694,-38.903137,,,,,,
1484011331.221284,-0.001784,0.047791,-1.216769,-0.000629,0.000383,0.001361,-0.001782,-0.047773,-0.998857,0.001614,0.000348,0.004121,-6.737427,71.973694,-38.903137,,,,,,
1484011331.241303,-0.001732,0.047770,-1.216749,-0.000634,0.001446,0.000280,-0.001730,-0.047752,-0.998858,0.000510,0.001259,0.004458,-7.711349,72.199890,-39.055725,,,,,,
1484011331.261323,-0.001731,0.047765,-1.216727,-0.000648,0.001443,0.002394,-0.001729,-0.047747,-0.998858,0.000767,0.000368,0.007266,-7.560577,72.423645,-39.731628,,,,,,
1484011331.281312,-0.001796,0.047767,-1.216692,0.000429,0.000392,0.001344,-0.001794,-0.047749,-0.998858,-0.002265,0.001057,0.006167,-7.411682,72.198364,-39.730286,,,,,,
1484011331.301331,-0.001796,0.047764,-1.216670,0.000437,-0.000669,0.001359,-0.001794,-0.047746,-0.998858,0.000070,0.000291,0.006091,-7.563766,71.823059,-40.103638,,,,,,
1484011331.321320,-0.001806,0.047773,-1.216659,0.000425,0.001455,0.000264,-0.001804,-0.047755,-0.998857,0.000965,0.000819,0.006304,-7.563766,71.823059,-40.103638,,,,,,
1484011331.341340,-0.001807,0.047756,-1.216638,0.000437,-0.000669,0.001358,-0.001805,-0.047737,-0.998858,0.000615,0.000618,0.006778,-7.860626,72.424011,-39.807068,,,,,,
1484011331.361329,-0.001799,0.047747,-1.216616,0.001499,0.000403,0.000281,-0.001797,-0.047729,-0.998859,-0.000233,0.000381,0.006137,-7.634659,72.574219,-39.432495,,,,,,
1484011331.381348,-0.001804,0.047743,-1.216605,0.000429,0.000392,0.001344,-0.001802,-0.047724,-0.998859,0.000200,0.000682,0.004077,-7.485504,72.423767,-39.581543,,,,,,
1484011331.401337,-0.001784,0.047745,-1.216584,0.000422,0.001454,0.001330,-0.001782,-0.047726,-0.998859,0.000348,0.000378,0.003910,-7.861694,72.199097,-39.730957,,,,,,
1484011331.421357,-0.001802,0.047717,-1.216562,0.000438,-0.001731,0.001353,-0.001800,-0.047699,-0.998860,-0.000778,0.000351,0.005116,-7.861694,72.199097,-39.730957,,,,,,
1484011331.441346,-0.001808,0.047721,-1.216546,-0.000644,0.000383,0.001322,-0.001806,-0.047703,-0.998860,-0.001170,0.000508,0.008183,-7.261658,72.198303,-39.655029,,,,,,
1484011331.461365,-0.001829,0.047700,-1.216524,0.000430,-0.000670,0.001339,-0.001827,-0.047682,-0.998861,-0.000294,0.001570,0.006353,-7.636322,72.273743,-39.730957,,,,,,
1484011331.481354,-0.001820,0.047695,-1.216509,-0.000637,-0.000679,0.001336,-0.001818,-0.047677,-0.998861,0.000720,0.000588,0.005697,-7.561691,72.198608,-39.730469,,,,,,
1484011331.501374,-0.001833,0.047708,-1.216477,0.000422,0.000392,0.001325,-0.001831,-0.047690,-0.998860,-0.000138,0.000312,0.004033,-7.486298,72.273621,-39.655762,,,,,,
1484011331.521394,-0.001829,0.047707,-1.216472,0.000441,-0.001730,0.000287,-0.001827,-0.047689,-0.998861,0.000881,-0.000269,0.005620,-7.486298,72.273621,-39.655762,,,,,,
1484011331.541383,-0.001841,0.047709,-1.216467,-0.000649,0.001446,0.000241,-0.001838,-0.047691,-0.998860,0.001076,0.000114,0.007253,-7.409927,72.499146,-39.206787,,,,,,
1484011331.561402,-0.001858,0.047707,-1.216440,0.000430,-0.000669,0.001339,-0.001856,-0.047689,-0.998861,-0.000448,0.000859,0.005147,-7.636398,72.273560,-39.880981,,,,,,
1484011331.581391,-0.001864,0.047692,-1.216423,-0.001718,0.000373,0.001300,-0.001862,-0.047674,-0.998861,-0.001037,0.000906,0.004660,-7.336014,72.348145,-39.880920,,,,,,
1484011331.601411,-0.001870,0.047710,-1.216413,0.000429,-0.000668,-0.000813,-0.001868,-0.047692,-0.998860,-0.001306,-0.000403,0.006139,-7.411880,72.123901,-39.354919,,,,,,
1484011331.621400,-0.001889,0.047690,-1.216386,-0.000652,0.000382,0.001303,-0.001887,-0.047672,-0.998861,-0.002004,0.000202,0.004690,-7.411880,72.123901,-39.354919,,,,,,
1484011331.641419,-0.001892,0.047678,-1.216375,0.001484,0.000402,0.000242,-0.001890,-0.047660,-0.998862,0.000257,0.000816,0.005728,-7.184555,72.573853,-39.206848,,,,,,
1484011331.661408,-0.001915,0.047670,-1.216375,0.000437,-0.001729,-0.000799,-0.001913,-0.047652,-0.998862,-0.000116,0.000335,0.005607,-7.635269,72.424683,-39.131775,,,,,,
1484011331.681428,-0.001933,0.047691,-1.216348,0.000423,-0.000670,0.001320,-0.001930,-0.047673,-0.998861,-0.000359,-0.000514,0.006170,-7.862564,71.974915,-39.204834,,,,,,
1484011331.701417,-0.001913,0.047661,-1.216343,-0.000656,0.001445,0.000222,-0.001911,-0.047643,-0.998863,0.000355,0.000570,0.008537,-7.487213,72.049194,-39.279602,,,,,,
1484011331.721436,-0.001920,0.047644,-1.216333,0.000429,-0.000668,-0.000813,-0.001918,-0.047626,-0.998863,-0.001469,0.000522,0.007027,-7.487213,72.049194,-39.279602,,,,,,
1484011331.741425,-0.001938,0.047644,-1.216316,-0.001718,-0.000690,0.001296,-0.001936,-0.047626,-0.998863,-0.000872,0.000384,0.005470,-7.260727,72.422791,-40.031128,,,,,,
1484011331.761445,-0.001910,0.047683,-1.216319,0.001480,0.000402,-0.000843,-0.001908,-0.047665,-0.998862,0.000992,0.000348,0.004690,-7.635712,72.349426,-39.281311,,,,,,
1484011331.781464,-0.001930,0.047684,-1.216302,0.000403,0.001453,0.000207,-0.001928,-0.047666,-0.998861,-0.001765,-0.000033,0.006567,-7.861771,72.198914,-39.880981,,,,,,
1484011331.801453,-0.001927,0.047687,-1.216308,0.000414,0.000393,-0.000846,-0.001924,-0.047669,-0.998861,0.000643,0.000779,0.006308,-7.635681,72.349548,-39.206360,,,,,,
1484011331.821473,-0.001918,0.047707,-1.216288,0.001485,-0.000660,0.000238,-0.001916,-0.047688,-0.998860,0.000283,-0.000148,0.005620,-7.635681,72.349548,-39.206360,,,,,,
1484011331.841462,-0.001888,0.047730,-1.216281,0.000426,-0.001731,0.000249,-0.001886,-0.047712,-0.998859,0.002756,0.000623,0.005466,-7.336761,72.198120,-39.880188,,,,,,
1484011331.861481,-0.001916,0.047690,-1.216259,-0.000667,0.001443,0.001270,-0.001914,-0.047672,-0.998861,-0.001794,0.001926,0.006201,-7.563614,71.823486,-39.803650,,,,,,
1484011331.881470,-0.001914,0.047719,-1.216243,0.001480,0.000403,-0.000843,-0.001912,-0.047701,-0.998860,0.000310,-0.000028,0.007618,-7.861618,72.199341,-39.580994,,,,,,
1484011331.901490,-0.001909,0.047738,-1.216229,0.000415,-0.001733,0.001297,-0.001907,-0.047720,-0.998859,0.000274,0.000464,0.006122,-7.710754,72.349426,-39.356445,,,,,,
1484011331.921472,-0.001870,0.047745,-1.216211,0.000415,-0.001733,0.001297,-0.001868,-0.047727,-0.998859,0.000205,0.001188,0.005725,-7.710754,72.349426,-39.356445,,,,,,
1484011331.941491,-0.001889,0.047765,-1.216185,0.000412,-0.001734,0.002364,-0.001887,-0.047747,-0.998858,-0.000676,0.000185,0.005297,-7.485641,72.349426,-39.131165,,,,,,
1484011331.961480,-0.001886,0.047785,-1.216165,0.000400,0.000391,0.001269,-0.001884,-0.047767,-0.998857,-0.000130,-0.000344,0.005937,-7.638687,71.749512,-39.203369,,,,,,
1484011331.981500,-0.001902,0.047820,-1.216144,0.000408,-0.000671,0.001283,-0.001900,-0.047801,-0.998855,-0.000664,-0.000447,0.006301,-7.561142,72.274170,-39.355835,,,,,,
1484011332.001489,-0.001870,0.047813,-1.216125,0.000419,-0.001731,0.000230,-0.001868,-0.047795,-0.998855,0.001150,0.000233,0.005127,-7.634705,72.574097,-39.507507,,,,,,
1484011332.021509,-0.001851,0.047797,-1.216101,-0.000666,0.000382,0.001266,-0.001849,-0.047779,-0.998856,0.000414,0.001209,0.006760,-7.634705,72.574097,-39.507507,,,,,,
1484011332.041498,-0.001862,0.047777,-1.216086,0.001467,0.000400,0.001272,-0.001860,-0.047759,-0.998857,-0.000048,0.001174,0.005678,-7.711609,72.199097,-39.580750,,,,,,
1484011332.061517,-0.001838,0.047793,-1.216066,0.001459,0.000399,0.001254,-0.001836,-0.047775,-0.998856,0.000066,0.000183,0.007417,-7.785538,72.424133,-39.656921,,,,,,
1484011332.081537,-0.001833,0.047800,-1.216057,0.000404,-0.000670,0.000198,-0.001831,-0.047782,-0.998856,0.000961,0.000861,0.004853,-7.484894,72.499390,-39.131897,,,,,,
,,,,,,,,,,,,,,,,33.759192,-118.389248,312.948059,0.000000,-1.000000,1484011331.999920
1484011332.101526,-0.001835,0.047786,-1.216059,0.000396,0.000391,0.000184,-0.001833,-0.047768,-0.998857,-0.000273,0.000954,0.003984,-7.409348,72.574707,-38.832153,,,,,,
1484011332.121545,-0.001826,0.047810,-1.216060,0.001474,-0.000660,-0.000866,-0.001824,-0.047792,-0.998856,0.001396,0.000078,0.006912,-7.409348,72.574707,-38.832153,,,,,,
1484011332.141534,-0.001793,0.047827,-1.216047,-0.000681,0.001443,0.001234,-0.001791,-0.047809,-0.998855,0.000356,0.000888,0.003005,-7.710083,72.499207,-39.507263,,,,,,
1484011332.161554,-0.001793,0.047799,-1.216033,0.001449,0.001460,0.002306,-0.001791,-0.047780,-0.998856,-0.000697,0.000325,0.003281,-7.411209,72.273743,-39.505676,,,,,,
1484011332.181543,-0.001822,0.047817,-1.216023,0.000404,-0.000670,0.000198,-0.001820,-0.047799,-0.998855,0.000721,0.000588,0.005783,-7.409409,72.648499,-39.657471,,,,,,
1484011332.201562,-0.001785,0.047795,-1.216026,0.000411,-0.001731,0.000212,-0.001783,-0.047777,-0.998856,0.000013,0.000887,0.006013,-7.710617,72.423767,-39.806824,,,,,,
1484011332.221551,-0.001821,0.047814,-1.216010,0.001452,0.000399,0.001236,-0.001819,-0.047796,-0.998855,-0.000332,0.000006,0.003601,-7.710617,72.423767,-39.806824,,,,,,
1484011332.241571,-0.001850,0.047804,-1.215985,0.001460,-0.000662,0.001250,-0.001848,-0.047785,-0.998856,0.000917,0.000300,0.005921,-7.561020,72.348450,-39.881287,,,,,,
1484011332.261560,-0.001829,0.047811,-1.215972,0.001452,0.000399,0.001236,-0.001827,-0.047792,-0.998856,0.000591,0.000063,0.005890,-7.484116,72.723389,-39.807983,,,,,,
1484011332.281579,-0.001785,0.047812,-1.215948,0.000381,0.001453,0.000152,-0.001782,-0.047794,-0.998856,0.002286,0.000812,0.006668,-7.633804,72.724548,-39.208252,,,,,,
1484011332.301568,-0.001782,0.047821,-1.215950,0.000389,0.000391,0.000166,-0.001779,-0.047803,-0.998855,0.000040,0.000028,0.007263,-7.635269,72.424683,-39.131775,,,,,,
1484011332.321588,-0.001852,0.047794,-1.215939,0.000396,-0.000670,0.000180,-0.001850,-0.047776,-0.998856,-0.001202,0.000733,0.007035,-7.635269,72.424683,-39.131775,,,,,,
1484011332.341607,-0.001840,0.047777,-1.215940,0.000384,0.001454,-0.000915,-0.001838,-0.047759,-0.998857,-0.000924,0.001647,0.003435,-7.863205,71.899109,-39.729431,,,,,,
1484011332.361596,-0.001837,0.047760,-1.215921,0.000385,0.000390,0.001233,-0.001835,-0.047742,-0.998858,0.000049,0.000715,0.007113,-7.785538,72.424133,-39.656921,,,,,,
1484011332.381616,-0.001865,0.047786,-1.215912,-0.000678,-0.000680,0.000160,-0.001863,-0.047767,-0.998857,0.000993,-0.000557,0.007341,-7.861221,72.274475,-39.506348,,,,,,
1484011332.401605,-0.001911,0.047789,-1.215896,0.000389,-0.000671,0.000163,-0.001909,-0.047771,-0.998856,-0.002241,0.000591,0.008592,-7.862152,72.123901,-39.880615,,,,,,
1484011332.421625,-0.001879,0.047813,-1.215889,0.001452,-0.000663,0.001233,-0.001877,-0.047795,-0.998855,0.001037,0.000279,0.005966,-7.862152,72.123901,-39.880615,,,,,,
1484011332.441614,-0.001937,0.047853,-1.215867,0.001449,-0.000664,0.002299,-0.001935,-0.047834,-0.998853,-0.002063,0.000105,0.005308,-7.937057,72.050354,-38.980286,,,,,,
1484011332.461633,-0.001929,0.047848,-1.215838,0.000386,-0.000672,0.001230,-0.001927,-0.047830,-0.998854,0.000355,0.000985,0.004942,-7.486298,72.273621,-39.655762,,,,,,
1484011332.481622,-0.001933,0.047838,-1.215814,-0.000685,0.000381,0.000146,-0.001931,-0.047820,-0.998854,-0.001228,0.000350,0.003859,-7.561661,72.198730,-39.655457,,,,,,
1484011332.501642,-0.001935,0.047833,-1.215784,0.000370,0.001451,0.001201,-0.001932,-0.047814,-0.998854,0.000483,0.001184,0.004897,-7.862488,72.049011,-39.805176,,,,,,
1484011332.521631,-0.001907,0.047812,-1.215755,-0.000681,-0.000681,0.001227,-0.001905,-0.047794,-0.998855,-0.000170,0.000751,0.006210,-7.862488,72.049011,-39.805176,,,,,,
1484011332.541650,-0.001887,0.047814,-1.215753,0.000370,0.000389,0.001199,-0.001885,-0.047796,-0.998855,0.000893,0.000433,0.007004,-7.785904,72.349121,-39.656555,,,,,,
1484011332.561639,-0.001868,0.047809,-1.215746,0.001440,0.000399,0.000135,-0.001865,-0.047791,-0.998856,0.001179,0.001237,0.007050,-7.412033,72.123474,-39.654907,,,,,,
1484011332.581659,-0.001878,0.047815,-1.215732,-0.000696,0.000380,0.001196,-0.001876,-0.047797,-0.998855,0.000426,0.000052,0.003662,-7.636459,72.199402,-39.280579,,,,,,
1484011332.601678,-0.001866,0.047827,-1.215719,0.001445,-0.000663,0.001216,-0.001864,-0.047809,-0.998855,0.000063,0.000522,0.005630,-7.937943,71.899963,-39.204590,,,,,,
1484011332.621667,-0.001863,0.047850,-1.215700,0.001437,0.000399,0.001202,-0.001861,-0.047832,-0.998854,0.000793,0.000789,0.005827,-7.937943,71.899963,-39.204590,,,,,,
1484011332.641687,-0.001903,0.047857,-1.215706,0.001448,-0.000662,0.000149,-0.001901,-0.047839,-0.998853,-0.000907,0.000201,0.002958,-7.635315,72.424561,-39.206787,,,,,,
1484011332.661676,-0.001923,0.047874,-1.215708,0.001440,0.000400,0.000135,-0.001920,-0.047856,-0.998852,-0.000292,0.000569,0.004635,-7.634323,72.575195,-38.757507,,,,,,
1484011332.681695,-0.001890,0.047889,-1.215712,0.000373,0.000390,0.000132,-0.001888,-0.047871,-0.998852,0.000912,0.001316,0.008221,-7.335678,72.349121,-39.205933,,,,,,
1484011332.701684,-0.001860,0.047942,-1.215699,0.001432,0.000399,0.000118,-0.001857,-0.047924,-0.998849,0.000545,-0.000340,0.005411,-7.411652,72.198486,-39.655273,,,,,,
1484011332.721704,-0.001846,0.047919,-1.215697,-0.000697,-0.000682,0.001193,-0.001844,-0.047901,-0.998850,0.000883,0.001254,0.006312,-7.411652,72.198486,-39.655273,,,,,,
